[
  {
    "name": "北京市",
    "value": "110000",
    "longitude": 0.0,
    "latitude": 0.0
  },
  {
    "name": "天津市",
    "value": "120000",
    "longitude": 0.0,
    "latitude": 0.0
  },
  {
    "name": "河北省",
    "value": "130000",
    "longitude": 0.0,
    "latitude": 0.0
  },
  {
    "name": "山西省",
    "value": " 140000 ",
    "longitude": 0.0,
    "latitude": 0.0
  },
  {
    "name": "内蒙古自治区",
    "value": " 150000 ",
    "longitude": 0.0,
    "latitude": 0.0
  },
  {
    "name": "辽宁省",
    "value": "210000 ",
    "longitude": 0.0,
    "latitude": 0.0
  },
  {
    "name": "吉林省",
    "value": "220000",
    "longitude": 0.0,
    "latitude": 0.0
  },
  {
    "name": "黑龙江省",
    "value": "230000",
    "longitude": 0.0,
    "latitude": 0.0
  },
  {
    "name": "上海市",
    "value": "310000 ",
    "longitude": 0.0,
    "latitude": 0.0
  },
  {
    "name": "江苏省",
    "value": "320000 ",
    "longitude": 0.0,
    "latitude": 0.0
  },
  {
    "name": "浙江省",
    "value": "330000",
    "longitude": 0.0,
    "latitude": 0.0
  },
  {
    "name": "安徽省",
    "value": "340000",
    "longitude": 0.0,
    "latitude": 0.0
  },
  {
    "name": "福建省",
    "value": "350000",
    "longitude": 0.0,
    "latitude": 0.0
  },
  {
    "name": "江西省",
    "value": "360000",
    "longitude": 0.0,
    "latitude": 0.0
  },
  {
    "name": "山东省",
    "value": "370000",
    "longitude": 0.0,
    "latitude": 0.0
  },
  {
    "name": "河南省",
    "value": "410000",
    "longitude": 0.0,
    "latitude": 0.0
  },
  {
    "name": "湖北省",
    "value": "420000",
    "longitude": 0.0,
    "latitude": 0.0
  },
  {
    "name": "湖南省",
    "value": "430000",
    "longitude": 0.0,
    "latitude": 0.0
  },
  {
    "name": "广东省",
    "value": "440000",
    "longitude": 0.0,
    "latitude": 0.0
  },
  {
    "name": "广西壮族自治区",
    "value": "450000",
    "longitude": 0.0,
    "latitude": 0.0
  },
  {
    "name": "海南省",
    "value": "460000",
    "longitude": 0.0,
    "latitude": 0.0
  },
  {
    "name": "重庆市",
    "value": "500000",
    "longitude": 0.0,
    "latitude": 0.0
  },
  {
    "name": "四川省",
    "value": "510000",
    "longitude": 0.0,
    "latitude": 0.0
  },
  {
    "name": "贵州省",
    "value": "520000",
    "longitude": 0.0,
    "latitude": 0.0
  },
  {
    "name": "云南省",
    "value": "530000",
    "longitude": 0.0,
    "latitude": 0.0
  },
  {
    "name": "西藏自治区",
    "value": "540000",
    "longitude": 0.0,
    "latitude": 0.0
  },
  {
    "name": "陕西省",
    "value": "610000",
    "longitude": 0.0,
    "latitude": 0.0
  },
  {
    "name": "甘肃省",
    "value": "620000",
    "longitude": 0.0,
    "latitude": 0.0
  },
  {
    "name": "青海省",
    "value": "630000",
    "longitude": 0.0,
    "latitude": 0.0
  },
  {
    "name": "宁夏回族自治区",
    "value": "640000",
    "longitude": 0.0,
    "latitude": 0.0
  },
  {
    "name": "新疆维吾尔自治区",
    "value": "650000",
    "longitude": 0.0,
    "latitude": 0.0
  },
  {
    "name": "市辖区",
    "value": "110100",
    "parent": "110000",
    "longitude": 116.39564503787867,
    "latitude": 39.92998577808024
  },
  {
    "name": "东城区",
    "value": "110101",
    "parent": "110100",
    "longitude": 116.42188470126446,
    "latitude": 39.93857401298612
  },
  {
    "name": "西城区",
    "value": "110102",
    "parent": "110100",
    "longitude": 116.37319010401802,
    "latitude": 39.93428014370851
  },
  {
    "name": "朝阳区",
    "value": "110105",
    "parent": "110100",
    "longitude": 112.85530302042478,
    "latitude": 35.52055875467328
  },
  {
    "name": "丰台区",
    "value": "110106",
    "parent": "110100",
    "longitude": 116.2583703354677,
    "latitude": 39.84193785220474
  },
  {
    "name": "石景山区",
    "value": "110107",
    "parent": "110100",
    "longitude": 116.18455581036746,
    "latitude": 39.93886654464553
  },
  {
    "name": "海淀区",
    "value": "110108",
    "parent": "110100",
    "longitude": 116.23967780102151,
    "latitude": 40.03316204507791
  },
  {
    "name": "门头沟区",
    "value": "110109",
    "parent": "110100",
    "longitude": 115.79579538125097,
    "latitude": 40.000893031476494
  },
  {
    "name": "房山区",
    "value": "110111",
    "parent": "110100",
    "longitude": 115.86283631290442,
    "latitude": 39.72675262079634
  },
  {
    "name": "通州区",
    "value": "110112",
    "parent": "110100",
    "longitude": 112.85530302042478,
    "latitude": 35.52055875467328
  },
  {
    "name": "顺义区",
    "value": "110113",
    "parent": "110100",
    "longitude": 116.72822904528138,
    "latitude": 40.154951470441354
  },
  {
    "name": "昌平区",
    "value": "110114",
    "parent": "110100",
    "longitude": 116.21645635689414,
    "latitude": 40.2217235498323
  },
  {
    "name": "大兴区",
    "value": "110115",
    "parent": "110100",
    "longitude": 116.42519459737913,
    "latitude": 39.652790118364464
  },
  {
    "name": "怀柔区",
    "value": "110116",
    "parent": "110100",
    "longitude": 116.59340835643431,
    "latitude": 40.63813934031092
  },
  {
    "name": "平谷区",
    "value": "110117",
    "parent": "110100",
    "longitude": 117.15043344819173,
    "latitude": 40.21592545389569
  },
  {
    "name": "密云区",
    "value": "110118",
    "parent": "110100",
    "longitude": 117.09666568438286,
    "latitude": 40.51733485384564
  },
  {
    "name": "延庆区",
    "value": "110119",
    "parent": "110100",
    "longitude": 116.16188313979873,
    "latitude": 40.53547574711141
  },
  {
    "name": "市辖区",
    "value": "120100",
    "parent": "120000",
    "longitude": 117.21081309155257,
    "latitude": 39.143929903310074
  },
  {
    "name": "和平区",
    "value": "120101",
    "parent": "120100",
    "longitude": 112.85530302042478,
    "latitude": 35.52055875467328
  },
  {
    "name": "河东区",
    "value": "120102",
    "parent": "120100",
    "longitude": 117.2616931652718,
    "latitude": 39.12662568466626
  },
  {
    "name": "河西区",
    "value": "120103",
    "parent": "120100",
    "longitude": 117.23616545061846,
    "latitude": 39.08449373961522
  },
  {
    "name": "南开区",
    "value": "120104",
    "parent": "120100",
    "longitude": 117.16272794945209,
    "latitude": 39.11698728552219
  },
  {
    "name": "河北区",
    "value": "120105",
    "parent": "120100",
    "longitude": 117.2202967650772,
    "latitude": 39.17314893392419
  },
  {
    "name": "红桥区",
    "value": "120106",
    "parent": "120100",
    "longitude": 117.16221680791986,
    "latitude": 39.17062133122504
  },
  {
    "name": "东丽区",
    "value": "120110",
    "parent": "120100",
    "longitude": 117.41478234324515,
    "latitude": 39.13960464277469
  },
  {
    "name": "西青区",
    "value": "120111",
    "parent": "120100",
    "longitude": 117.12620134664701,
    "latitude": 39.03506461148468
  },
  {
    "name": "津南区",
    "value": "120112",
    "parent": "120100",
    "longitude": 117.39290995971812,
    "latitude": 38.96979053272527
  },
  {
    "name": "北辰区",
    "value": "120113",
    "parent": "120100",
    "longitude": 117.18060609828129,
    "latitude": 39.25913062597893
  },
  {
    "name": "武清区",
    "value": "120114",
    "parent": "120100",
    "longitude": 117.0345779137272,
    "latitude": 39.457042575494015
  },
  {
    "name": "宝坻区",
    "value": "120115",
    "parent": "120100",
    "longitude": 117.41142059078038,
    "latitude": 39.61554400413299
  },
  {
    "name": "滨海新区",
    "value": "120116",
    "parent": "120100",
    "longitude": 117.64628627057449,
    "latitude": 39.05917663803484
  },
  {
    "name": "宁河区",
    "value": "120117",
    "parent": "120100",
    "longitude": 117.63123582919582,
    "latitude": 39.39042157005324
  },
  {
    "name": "静海区",
    "value": "120118",
    "parent": "120100",
    "longitude": 116.98682530718416,
    "latitude": 38.837510804606694
  },
  {
    "name": "蓟州区",
    "value": "120119",
    "parent": "120100",
    "longitude": 117.47034191571119,
    "latitude": 40.009456311950956
  },
  {
    "name": "石家庄市",
    "value": "130100",
    "parent": "130000",
    "longitude": 114.52208184420766,
    "latitude": 38.048958314615454
  },
  {
    "name": "唐山市",
    "value": "130200",
    "parent": "130000",
    "longitude": 118.18345059773411,
    "latitude": 39.6505309225366
  },
  {
    "name": "秦皇岛市",
    "value": "130300",
    "parent": "130000",
    "longitude": 119.6043676161184,
    "latitude": 39.945461565897574
  },
  {
    "name": "邯郸市",
    "value": "130400",
    "parent": "130000",
    "longitude": 114.4826939323422,
    "latitude": 36.60930792847117
  },
  {
    "name": "邢台市",
    "value": "130500",
    "parent": "130000",
    "longitude": 114.52048681294414,
    "latitude": 37.069531196911996
  },
  {
    "name": "保定市",
    "value": "130600",
    "parent": "130000",
    "longitude": 115.49481016907626,
    "latitude": 38.88656454802744
  },
  {
    "name": "张家口市",
    "value": "130700",
    "parent": "130000",
    "longitude": 114.89378153032918,
    "latitude": 40.81118849110306
  },
  {
    "name": "承德市",
    "value": "130800",
    "parent": "130000",
    "longitude": 117.93382245583847,
    "latitude": 40.992521052457136
  },
  {
    "name": "沧州市",
    "value": "130900",
    "parent": "130000",
    "longitude": 116.86380647644208,
    "latitude": 38.297615350325714
  },
  {
    "name": "廊坊市",
    "value": "131000",
    "parent": "130000",
    "longitude": 116.70360222263986,
    "latitude": 39.51861062508462
  },
  {
    "name": "衡水市",
    "value": "131100",
    "parent": "130000",
    "longitude": 115.68622865290865,
    "latitude": 37.74692904585666
  },
  {
    "name": "定州市",
    "value": "139001",
    "parent": "130000",
    "longitude": 115.0574069523237,
    "latitude": 38.46583915804824
  },
  {
    "name": "辛集市",
    "value": "139002",
    "parent": "130000",
    "longitude": 115.29874950520801,
    "latitude": 37.924121876409345
  },
  {
    "name": "长安区",
    "value": "130102",
    "parent": "130100",
    "longitude": 114.59262155387033,
    "latitude": 38.07687479578663
  },
  {
    "name": "桥西区",
    "value": "130104",
    "parent": "130100",
    "longitude": 114.43813995531943,
    "latitude": 38.033364550068136
  },
  {
    "name": "新华区",
    "value": "130105",
    "parent": "130100",
    "longitude": 114.4535014286928,
    "latitude": 38.117218640478164
  },
  {
    "name": "井陉矿区",
    "value": "130107",
    "parent": "130100",
    "longitude": 114.05074376291131,
    "latitude": 38.08109756115976
  },
  {
    "name": "裕华区",
    "value": "130108",
    "parent": "130100",
    "longitude": 114.58638255261188,
    "latitude": 38.014621045711564
  },
  {
    "name": "藁城区",
    "value": "130109",
    "parent": "130100",
    "longitude": 114.82809608577793,
    "latitude": 38.0894901139448
  },
  {
    "name": "鹿泉区",
    "value": "130110",
    "parent": "130100",
    "longitude": 114.35731900345093,
    "latitude": 38.089969323508726
  },
  {
    "name": "栾城区",
    "value": "130111",
    "parent": "130100",
    "longitude": 114.64775310252736,
    "latitude": 37.91328595180991
  },
  {
    "name": "井陉县",
    "value": "130121",
    "parent": "130100",
    "longitude": 114.07795206334612,
    "latitude": 38.00089081581098
  },
  {
    "name": "正定县",
    "value": "130123",
    "parent": "130100",
    "longitude": 114.570201323482,
    "latitude": 38.22707253547888
  },
  {
    "name": "行唐县",
    "value": "130125",
    "parent": "130100",
    "longitude": 114.45743612436708,
    "latitude": 38.54669530138655
  },
  {
    "name": "灵寿县",
    "value": "130126",
    "parent": "130100",
    "longitude": 114.18781898136918,
    "latitude": 38.51093598541389
  },
  {
    "name": "高邑县",
    "value": "130127",
    "parent": "130100",
    "longitude": 114.60738469340112,
    "latitude": 37.62265087075653
  },
  {
    "name": "深泽县",
    "value": "130128",
    "parent": "130100",
    "longitude": 115.2331024279265,
    "latitude": 38.194680827355405
  },
  {
    "name": "赞皇县",
    "value": "130129",
    "parent": "130100",
    "longitude": 114.28955340433097,
    "latitude": 37.62813245296578
  },
  {
    "name": "无极县",
    "value": "130130",
    "parent": "130100",
    "longitude": 114.95113960112629,
    "latitude": 38.18328602020015
  },
  {
    "name": "平山县",
    "value": "130131",
    "parent": "130100",
    "longitude": 113.87242852701142,
    "latitude": 38.40876219172478
  },
  {
    "name": "元氏县",
    "value": "130132",
    "parent": "130100",
    "longitude": 114.42836015628082,
    "latitude": 37.807352641009125
  },
  {
    "name": "赵县",
    "value": "130133",
    "parent": "130100",
    "longitude": 114.83493823755897,
    "latitude": 37.76961244836501
  },
  {
    "name": "晋州市",
    "value": "130183",
    "parent": "130100",
    "longitude": 115.09173828063928,
    "latitude": 37.991145102246215
  },
  {
    "name": "新乐市",
    "value": "130184",
    "parent": "130100",
    "longitude": 114.76227076682582,
    "latitude": 38.37757802583929
  },
  {
    "name": "路南区",
    "value": "130202",
    "parent": "130200",
    "longitude": 118.20604028639353,
    "latitude": 39.6129869967351
  },
  {
    "name": "路北区",
    "value": "130203",
    "parent": "130200",
    "longitude": 118.2239040795955,
    "latitude": 39.67398596597487
  },
  {
    "name": "古冶区",
    "value": "130204",
    "parent": "130200",
    "longitude": 118.46223153817563,
    "latitude": 39.723044780377755
  },
  {
    "name": "开平区",
    "value": "130205",
    "parent": "130200",
    "longitude": 118.25784790074829,
    "latitude": 39.69212342084615
  },
  {
    "name": "丰南区",
    "value": "130207",
    "parent": "130200",
    "longitude": 118.08584709898903,
    "latitude": 39.38466274859299
  },
  {
    "name": "丰润区",
    "value": "130208",
    "parent": "130200",
    "longitude": 118.05949036617352,
    "latitude": 39.78990941033889
  },
  {
    "name": "曹妃甸区",
    "value": "130209",
    "parent": "130200",
    "longitude": 118.41596118318783,
    "latitude": 39.26603784107154
  },
  {
    "name": "滦县",
    "value": "130223",
    "parent": "130200",
    "longitude": 118.58377725189884,
    "latitude": 39.785508848228524
  },
  {
    "name": "滦南县",
    "value": "130224",
    "parent": "130200",
    "longitude": 118.54938466455619,
    "latitude": 39.36073889990078
  },
  {
    "name": "乐亭县",
    "value": "130225",
    "parent": "130200",
    "longitude": 118.93994305703049,
    "latitude": 39.35722889189613
  },
  {
    "name": "迁西县",
    "value": "130227",
    "parent": "130200",
    "longitude": 118.37138905433555,
    "latitude": 40.238507660812054
  },
  {
    "name": "玉田县",
    "value": "130229",
    "parent": "130200",
    "longitude": 117.73475264490037,
    "latitude": 39.81884335578796
  },
  {
    "name": "遵化市",
    "value": "130281",
    "parent": "130200",
    "longitude": 117.9576391276162,
    "latitude": 40.13790106402117
  },
  {
    "name": "迁安市",
    "value": "130283",
    "parent": "130200",
    "longitude": 118.68695461732042,
    "latitude": 40.04044251326034
  },
  {
    "name": "海港区",
    "value": "130302",
    "parent": "130300",
    "longitude": 119.57761724582842,
    "latitude": 39.98877957711658
  },
  {
    "name": "山海关区",
    "value": "130303",
    "parent": "130300",
    "longitude": 119.71361557969767,
    "latitude": 40.03289962810107
  },
  {
    "name": "北戴河区",
    "value": "130304",
    "parent": "130300",
    "longitude": 119.47932079421292,
    "latitude": 39.854292584186524
  },
  {
    "name": "抚宁区",
    "value": "130306",
    "parent": "130300",
    "longitude": 119.34003537992325,
    "latitude": 39.91085711536709
  },
  {
    "name": "青龙满族自治县",
    "value": "130321",
    "parent": "130300",
    "longitude": 119.13758245071998,
    "latitude": 40.35365030864839
  },
  {
    "name": "昌黎县",
    "value": "130322",
    "parent": "130300",
    "longitude": 119.09462149738174,
    "latitude": 39.63802116472844
  },
  {
    "name": "卢龙县",
    "value": "130324",
    "parent": "130300",
    "longitude": 118.98556414609303,
    "latitude": 39.92097845518615
  },
  {
    "name": "邯山区",
    "value": "130402",
    "parent": "130400",
    "longitude": 114.46928986667508,
    "latitude": 36.53615307893675
  },
  {
    "name": "丛台区",
    "value": "130403",
    "parent": "130400",
    "longitude": 114.51106763051926,
    "latitude": 36.63721481515195
  },
  {
    "name": "复兴区",
    "value": "130404",
    "parent": "130400",
    "longitude": 114.44809470748935,
    "latitude": 36.61036859222694
  },
  {
    "name": "峰峰矿区",
    "value": "130406",
    "parent": "130400",
    "longitude": 114.19042164993341,
    "latitude": 36.47468499742299
  },
  {
    "name": "邯郸县",
    "value": "130421",
    "parent": "130400",
    "longitude": 114.49448604232236,
    "latitude": 36.62034722106213
  },
  {
    "name": "临漳县",
    "value": "130423",
    "parent": "130400",
    "longitude": 114.58694416944023,
    "latitude": 36.266141946473816
  },
  {
    "name": "成安县",
    "value": "130424",
    "parent": "130400",
    "longitude": 114.70477468284857,
    "latitude": 36.42815064718614
  },
  {
    "name": "大名县",
    "value": "130425",
    "parent": "130400",
    "longitude": 115.24863464403913,
    "latitude": 36.3095437707563
  },
  {
    "name": "涉县",
    "value": "130426",
    "parent": "130400",
    "longitude": 113.74291352234147,
    "latitude": 36.5981045355726
  },
  {
    "name": "磁县",
    "value": "130427",
    "parent": "130400",
    "longitude": 114.25510074084815,
    "latitude": 36.40673060254672
  },
  {
    "name": "肥乡县",
    "value": "130428",
    "parent": "130400",
    "longitude": 114.83690510574364,
    "latitude": 36.57726088762066
  },
  {
    "name": "永年县",
    "value": "130429",
    "parent": "130400",
    "longitude": 114.6416019871825,
    "latitude": 36.770200181653436
  },
  {
    "name": "邱县",
    "value": "130430",
    "parent": "130400",
    "longitude": 115.20670231618584,
    "latitude": 36.7972697871432
  },
  {
    "name": "鸡泽县",
    "value": "130431",
    "parent": "130400",
    "longitude": 114.86956581383834,
    "latitude": 36.8736774898167
  },
  {
    "name": "广平县",
    "value": "130432",
    "parent": "130400",
    "longitude": 115.02087402113777,
    "latitude": 36.51192631392974
  },
  {
    "name": "馆陶县",
    "value": "130433",
    "parent": "130400",
    "longitude": 115.2991566258206,
    "latitude": 36.61853700578129
  },
  {
    "name": "魏县",
    "value": "130434",
    "parent": "130400",
    "longitude": 114.93600011897692,
    "latitude": 36.25056776109478
  },
  {
    "name": "曲周县",
    "value": "130435",
    "parent": "130400",
    "longitude": 115.03853247193365,
    "latitude": 36.75265126571866
  },
  {
    "name": "武安市",
    "value": "130481",
    "parent": "130400",
    "longitude": 114.05833396936403,
    "latitude": 36.74899547659651
  },
  {
    "name": "桥东区",
    "value": "130502",
    "parent": "130500",
    "longitude": 114.52129744383635,
    "latitude": 37.05904625207306
  },
  {
    "name": "桥西区",
    "value": "130503",
    "parent": "130500",
    "longitude": 114.46840126286459,
    "latitude": 37.053579664220926
  },
  {
    "name": "邢台县",
    "value": "130521",
    "parent": "130500",
    "longitude": 114.16774440241458,
    "latitude": 37.15242169927538
  },
  {
    "name": "临城县",
    "value": "130522",
    "parent": "130500",
    "longitude": 114.38466503754913,
    "latitude": 37.46313759161686
  },
  {
    "name": "内丘县",
    "value": "130523",
    "parent": "130500",
    "longitude": 114.30459575437459,
    "latitude": 37.314224311167216
  },
  {
    "name": "柏乡县",
    "value": "130524",
    "parent": "130500",
    "longitude": 114.70742434433781,
    "latitude": 37.51741841433831
  },
  {
    "name": "隆尧县",
    "value": "130525",
    "parent": "130500",
    "longitude": 114.79291584706847,
    "latitude": 37.3646880835802
  },
  {
    "name": "任县",
    "value": "130526",
    "parent": "130500",
    "longitude": 114.76996715970284,
    "latitude": 37.17463010175525
  },
  {
    "name": "南和县",
    "value": "130527",
    "parent": "130500",
    "longitude": 114.7530893588285,
    "latitude": 37.01696387437857
  },
  {
    "name": "宁晋县",
    "value": "130528",
    "parent": "130500",
    "longitude": 115.0216784372147,
    "latitude": 37.612086758173035
  },
  {
    "name": "巨鹿县",
    "value": "130529",
    "parent": "130500",
    "longitude": 115.05888578855014,
    "latitude": 37.2786792970841
  },
  {
    "name": "新河县",
    "value": "130530",
    "parent": "130500",
    "longitude": 115.25720361983953,
    "latitude": 37.49936256733351
  },
  {
    "name": "广宗县",
    "value": "130531",
    "parent": "130500",
    "longitude": 115.19817308929126,
    "latitude": 37.08354869240554
  },
  {
    "name": "平乡县",
    "value": "130532",
    "parent": "130500",
    "longitude": 115.0048185470862,
    "latitude": 37.056110207563535
  },
  {
    "name": "威县",
    "value": "130533",
    "parent": "130500",
    "longitude": 115.38772530687282,
    "latitude": 37.078394650564825
  },
  {
    "name": "清河县",
    "value": "130534",
    "parent": "130500",
    "longitude": 115.6915895160533,
    "latitude": 37.040529913617476
  },
  {
    "name": "临西县",
    "value": "130535",
    "parent": "130500",
    "longitude": 115.52844117588303,
    "latitude": 36.85802735355574
  },
  {
    "name": "南宫市",
    "value": "130581",
    "parent": "130500",
    "longitude": 115.47940958600971,
    "latitude": 37.28642741327499
  },
  {
    "name": "沙河市",
    "value": "130582",
    "parent": "130500",
    "longitude": 114.28309250178685,
    "latitude": 36.93863545934609
  },
  {
    "name": "竞秀区",
    "value": "130602",
    "parent": "130600",
    "longitude": 115.43377183409771,
    "latitude": 38.89679917192267
  },
  {
    "name": "莲池区",
    "value": "130606",
    "parent": "130600",
    "longitude": 115.52517138526196,
    "latitude": 38.878869183081505
  },
  {
    "name": "满城区",
    "value": "130607",
    "parent": "130600",
    "longitude": 115.22854614305142,
    "latitude": 38.936509575445896
  },
  {
    "name": "清苑区",
    "value": "130608",
    "parent": "130600",
    "longitude": 115.50474549359292,
    "latitude": 38.746793898598234
  },
  {
    "name": "徐水区",
    "value": "130609",
    "parent": "130600",
    "longitude": 115.56341421451756,
    "latitude": 39.03007206483382
  },
  {
    "name": "涞水县",
    "value": "130623",
    "parent": "130600",
    "longitude": 115.44462792481454,
    "latitude": 39.616117563204725
  },
  {
    "name": "阜平县",
    "value": "130624",
    "parent": "130600",
    "longitude": 114.16421062386792,
    "latitude": 38.89480641121728
  },
  {
    "name": "定兴县",
    "value": "130626",
    "parent": "130600",
    "longitude": 115.75504588837723,
    "latitude": 39.211518314258704
  },
  {
    "name": "唐县",
    "value": "130627",
    "parent": "130600",
    "longitude": 114.80609127314982,
    "latitude": 38.90452113124948
  },
  {
    "name": "高阳县",
    "value": "130628",
    "parent": "130600",
    "longitude": 115.8384418838674,
    "latitude": 38.6730209002616
  },
  {
    "name": "容城县",
    "value": "130629",
    "parent": "130600",
    "longitude": 115.90877891487291,
    "latitude": 39.05781354953602
  },
  {
    "name": "涞源县",
    "value": "130630",
    "parent": "130600",
    "longitude": 114.73045121001118,
    "latitude": 39.3669367870307
  },
  {
    "name": "望都县",
    "value": "130631",
    "parent": "130600",
    "longitude": 115.17834559653627,
    "latitude": 38.67901497910385
  },
  {
    "name": "安新县",
    "value": "130632",
    "parent": "130600",
    "longitude": 115.8867310100507,
    "latitude": 38.8782552166
  },
  {
    "name": "易县",
    "value": "130633",
    "parent": "130600",
    "longitude": 115.25402170203208,
    "latitude": 39.31756605114426
  },
  {
    "name": "曲阳县",
    "value": "130634",
    "parent": "130600",
    "longitude": 114.66066397519262,
    "latitude": 38.70661221492098
  },
  {
    "name": "蠡县",
    "value": "130635",
    "parent": "130600",
    "longitude": 115.66928195752807,
    "latitude": 38.52823213602215
  },
  {
    "name": "顺平县",
    "value": "130636",
    "parent": "130600",
    "longitude": 115.07398905468821,
    "latitude": 38.92795137598545
  },
  {
    "name": "博野县",
    "value": "130637",
    "parent": "130600",
    "longitude": 115.48778569395974,
    "latitude": 38.45912314067235
  },
  {
    "name": "雄县",
    "value": "130638",
    "parent": "130600",
    "longitude": 116.18329894846163,
    "latitude": 39.042786858076674
  },
  {
    "name": "涿州市",
    "value": "130681",
    "parent": "130600",
    "longitude": 115.99905364071243,
    "latitude": 39.48248181057233
  },
  {
    "name": "安国市",
    "value": "130683",
    "parent": "130600",
    "longitude": 115.33482671533687,
    "latitude": 38.39373999035212
  },
  {
    "name": "高碑店市",
    "value": "130684",
    "parent": "130600",
    "longitude": 116.04093362477256,
    "latitude": 39.26508776483182
  },
  {
    "name": "桥东区",
    "value": "130702",
    "parent": "130700",
    "longitude": 114.91516641163861,
    "latitude": 40.78291035024692
  },
  {
    "name": "桥西区",
    "value": "130703",
    "parent": "130700",
    "longitude": 114.86162345069968,
    "latitude": 40.83764647974005
  },
  {
    "name": "宣化区",
    "value": "130705",
    "parent": "130700",
    "longitude": 115.25847218770907,
    "latitude": 40.632394360148936
  },
  {
    "name": "下花园区",
    "value": "130706",
    "parent": "130700",
    "longitude": 115.35049833098363,
    "latitude": 40.56883692865251
  },
  {
    "name": "万全区",
    "value": "130708",
    "parent": "130700",
    "longitude": 114.60159442218563,
    "latitude": 40.85432257912531
  },
  {
    "name": "崇礼区",
    "value": "130709",
    "parent": "130700",
    "longitude": 115.18918281511286,
    "latitude": 41.041738952717886
  },
  {
    "name": "张北县",
    "value": "130722",
    "parent": "130700",
    "longitude": 114.77289736583953,
    "latitude": 41.293640752346136
  },
  {
    "name": "康保县",
    "value": "130723",
    "parent": "130700",
    "longitude": 114.60653573475116,
    "latitude": 41.78459526909898
  },
  {
    "name": "沽源县",
    "value": "130724",
    "parent": "130700",
    "longitude": 115.6360916492231,
    "latitude": 41.580403842568316
  },
  {
    "name": "尚义县",
    "value": "130725",
    "parent": "130700",
    "longitude": 114.15252831523267,
    "latitude": 41.132634994489365
  },
  {
    "name": "蔚县",
    "value": "130726",
    "parent": "130700",
    "longitude": 114.71253718703703,
    "latitude": 39.87935314783146
  },
  {
    "name": "阳原县",
    "value": "130727",
    "parent": "130700",
    "longitude": 114.39439590666633,
    "latitude": 40.13864212021103
  },
  {
    "name": "怀安县",
    "value": "130728",
    "parent": "130700",
    "longitude": 114.50260736694563,
    "latitude": 40.55953357513103
  },
  {
    "name": "怀来县",
    "value": "130730",
    "parent": "130700",
    "longitude": 115.63406061974166,
    "latitude": 40.34798364385029
  },
  {
    "name": "涿鹿县",
    "value": "130731",
    "parent": "130700",
    "longitude": 115.22392517513477,
    "latitude": 40.101875913480974
  },
  {
    "name": "赤城县",
    "value": "130732",
    "parent": "130700",
    "longitude": 115.89222267195456,
    "latitude": 40.95602625953662
  },
  {
    "name": "双桥区",
    "value": "130802",
    "parent": "130800",
    "longitude": 117.9483552423789,
    "latitude": 40.971406352197
  },
  {
    "name": "双滦区",
    "value": "130803",
    "parent": "130800",
    "longitude": 117.80933581724904,
    "latitude": 41.05145316070315
  },
  {
    "name": "鹰手营子矿区",
    "value": "130804",
    "parent": "130800",
    "longitude": 117.67942626427491,
    "latitude": 40.53176028123406
  },
  {
    "name": "承德县",
    "value": "130821",
    "parent": "130800",
    "longitude": 118.12571829805464,
    "latitude": 40.97324218230024
  },
  {
    "name": "兴隆县",
    "value": "130822",
    "parent": "130800",
    "longitude": 117.72613599004742,
    "latitude": 40.45814168629515
  },
  {
    "name": "平泉县",
    "value": "130823",
    "parent": "130800",
    "longitude": 118.73932350857935,
    "latitude": 41.07530376870277
  },
  {
    "name": "滦平县",
    "value": "130824",
    "parent": "130800",
    "longitude": 117.36956340989389,
    "latitude": 40.924820741760996
  },
  {
    "name": "隆化县",
    "value": "130825",
    "parent": "130800",
    "longitude": 117.56992967904758,
    "latitude": 41.517994972230575
  },
  {
    "name": "丰宁满族自治县",
    "value": "130826",
    "parent": "130800",
    "longitude": 116.62379481267644,
    "latitude": 41.42568433518443
  },
  {
    "name": "宽城满族自治县",
    "value": "130827",
    "parent": "130800",
    "longitude": 118.63588822016969,
    "latitude": 40.5780903780955
  },
  {
    "name": "围场满族蒙古族自治县",
    "value": "130828",
    "parent": "130800",
    "longitude": 117.54702150524338,
    "latitude": 42.10802456586188
  },
  {
    "name": "新华区",
    "value": "130902",
    "parent": "130900",
    "longitude": 116.89305880723845,
    "latitude": 38.30837533308444
  },
  {
    "name": "运河区",
    "value": "130903",
    "parent": "130900",
    "longitude": 116.84485357763981,
    "latitude": 38.314446124595506
  },
  {
    "name": "沧县",
    "value": "130921",
    "parent": "130900",
    "longitude": 116.86271383127912,
    "latitude": 38.30213869620715
  },
  {
    "name": "青县",
    "value": "130922",
    "parent": "130900",
    "longitude": 116.85123400251861,
    "latitude": 38.56577832855556
  },
  {
    "name": "东光县",
    "value": "130923",
    "parent": "130900",
    "longitude": 116.67783233647565,
    "latitude": 37.88745160368844
  },
  {
    "name": "海兴县",
    "value": "130924",
    "parent": "130900",
    "longitude": 117.56726425887852,
    "latitude": 38.14247021690735
  },
  {
    "name": "盐山县",
    "value": "130925",
    "parent": "130900",
    "longitude": 117.2669398963173,
    "latitude": 37.96036972410193
  },
  {
    "name": "肃宁县",
    "value": "130926",
    "parent": "130900",
    "longitude": 115.88581610558234,
    "latitude": 38.42220712282884
  },
  {
    "name": "南皮县",
    "value": "130927",
    "parent": "130900",
    "longitude": 116.86584977740382,
    "latitude": 38.02318570282536
  },
  {
    "name": "吴桥县",
    "value": "130928",
    "parent": "130900",
    "longitude": 116.50803340730387,
    "latitude": 37.66186347209427
  },
  {
    "name": "献县",
    "value": "130929",
    "parent": "130900",
    "longitude": 116.1755053023729,
    "latitude": 38.24272584047104
  },
  {
    "name": "孟村回族自治县",
    "value": "130930",
    "parent": "130900",
    "longitude": 117.1595383854352,
    "latitude": 38.091264713341985
  },
  {
    "name": "泊头市",
    "value": "130981",
    "parent": "130900",
    "longitude": 116.38923597744922,
    "latitude": 38.090278710884434
  },
  {
    "name": "任丘市",
    "value": "130982",
    "parent": "130900",
    "longitude": 116.16321405193285,
    "latitude": 38.741104641109665
  },
  {
    "name": "黄骅市",
    "value": "130983",
    "parent": "130900",
    "longitude": 117.40021701973511,
    "latitude": 38.40152184548731
  },
  {
    "name": "河间市",
    "value": "130984",
    "parent": "130900",
    "longitude": 116.27159283892823,
    "latitude": 38.483721432478625
  },
  {
    "name": "安次区",
    "value": "131002",
    "parent": "131000",
    "longitude": 116.79612310880948,
    "latitude": 39.34531218063897
  },
  {
    "name": "广阳区",
    "value": "131003",
    "parent": "131000",
    "longitude": 116.69423648939282,
    "latitude": 39.53368553745463
  },
  {
    "name": "固安县",
    "value": "131022",
    "parent": "131000",
    "longitude": 116.28967015726496,
    "latitude": 39.35110594099413
  },
  {
    "name": "永清县",
    "value": "131023",
    "parent": "131000",
    "longitude": 116.56055697010446,
    "latitude": 39.30283643021088
  },
  {
    "name": "香河县",
    "value": "131024",
    "parent": "131000",
    "longitude": 117.05130555355426,
    "latitude": 39.74310003286535
  },
  {
    "name": "大城县",
    "value": "131025",
    "parent": "131000",
    "longitude": 116.58863867605716,
    "latitude": 38.668802703655814
  },
  {
    "name": "文安县",
    "value": "131026",
    "parent": "131000",
    "longitude": 116.49481687117816,
    "latitude": 38.911390482571576
  },
  {
    "name": "大厂回族自治县",
    "value": "131028",
    "parent": "131000",
    "longitude": 116.9550764486355,
    "latitude": 39.89531635508993
  },
  {
    "name": "霸州市",
    "value": "131081",
    "parent": "131000",
    "longitude": 116.5743059897649,
    "latitude": 39.10932007905548
  },
  {
    "name": "三河市",
    "value": "131082",
    "parent": "131000",
    "longitude": 117.02128418408721,
    "latitude": 39.96742764877024
  },
  {
    "name": "桃城区",
    "value": "131102",
    "parent": "131100",
    "longitude": 115.66665700011858,
    "latitude": 37.724217886080204
  },
  {
    "name": "冀州区",
    "value": "131103",
    "parent": "131100",
    "longitude": 115.44750567041248,
    "latitude": 37.536435020579844
  },
  {
    "name": "枣强县",
    "value": "131121",
    "parent": "131100",
    "longitude": 115.75767748261335,
    "latitude": 37.461024106053756
  },
  {
    "name": "武邑县",
    "value": "131122",
    "parent": "131100",
    "longitude": 115.94450660707568,
    "latitude": 37.827678592246414
  },
  {
    "name": "武强县",
    "value": "131123",
    "parent": "131100",
    "longitude": 115.92011828199676,
    "latitude": 38.05051303402729
  },
  {
    "name": "饶阳县",
    "value": "131124",
    "parent": "131100",
    "longitude": 115.74000746167843,
    "latitude": 38.2230592410421
  },
  {
    "name": "安平县",
    "value": "131125",
    "parent": "131100",
    "longitude": 115.49041582246221,
    "latitude": 38.24319586948719
  },
  {
    "name": "故城县",
    "value": "131126",
    "parent": "131100",
    "longitude": 115.97805666289368,
    "latitude": 37.35699790636729
  },
  {
    "name": "景县",
    "value": "131127",
    "parent": "131100",
    "longitude": 116.20013356505655,
    "latitude": 37.668477471140775
  },
  {
    "name": "阜城县",
    "value": "131128",
    "parent": "131100",
    "longitude": 116.32842518536647,
    "latitude": 37.91230921361678
  },
  {
    "name": "深州市",
    "value": "131182",
    "parent": "131100",
    "longitude": 115.58669880842099,
    "latitude": 37.95701286270159
  },
  {
    "name": "太原市",
    "value": "140100",
    "parent": "140000",
    "longitude": 0.0,
    "latitude": 0.0
  },
  {
    "name": "大同市",
    "value": "140200",
    "parent": "140000",
    "longitude": 0.0,
    "latitude": 0.0
  },
  {
    "name": "阳泉市",
    "value": "140300",
    "parent": "140000",
    "longitude": 0.0,
    "latitude": 0.0
  },
  {
    "name": "长治市",
    "value": "140400",
    "parent": "140000",
    "longitude": 0.0,
    "latitude": 0.0
  },
  {
    "name": "晋城市",
    "value": "140500",
    "parent": "140000",
    "longitude": 0.0,
    "latitude": 0.0
  },
  {
    "name": "朔州市",
    "value": "140600",
    "parent": "140000",
    "longitude": 0.0,
    "latitude": 0.0
  },
  {
    "name": "晋中市",
    "value": "140700",
    "parent": "140000",
    "longitude": 0.0,
    "latitude": 0.0
  },
  {
    "name": "运城市",
    "value": "140800",
    "parent": "140000",
    "longitude": 0.0,
    "latitude": 0.0
  },
  {
    "name": "忻州市",
    "value": "140900",
    "parent": "140000",
    "longitude": 0.0,
    "latitude": 0.0
  },
  {
    "name": "临汾市",
    "value": "141000",
    "parent": "140000",
    "longitude": 0.0,
    "latitude": 0.0
  },
  {
    "name": "吕梁市",
    "value": "141100",
    "parent": "140000",
    "longitude": 0.0,
    "latitude": 0.0
  },
  {
    "name": "小店区",
    "value": "140105",
    "parent": "140100",
    "longitude": 112.5774086067057,
    "latitude": 37.753527970895775
  },
  {
    "name": "迎泽区",
    "value": "140106",
    "parent": "140100",
    "longitude": 112.6632029812166,
    "latitude": 37.86573730206059
  },
  {
    "name": "杏花岭区",
    "value": "140107",
    "parent": "140100",
    "longitude": 112.62983632135398,
    "latitude": 37.91555605696536
  },
  {
    "name": "尖草坪区",
    "value": "140108",
    "parent": "140100",
    "longitude": 112.48843997984471,
    "latitude": 37.97275783953498
  },
  {
    "name": "万柏林区",
    "value": "140109",
    "parent": "140100",
    "longitude": 112.4028569766203,
    "latitude": 37.89469344758146
  },
  {
    "name": "晋源区",
    "value": "140110",
    "parent": "140100",
    "longitude": 112.48158725626186,
    "latitude": 37.74867491700283
  },
  {
    "name": "清徐县",
    "value": "140121",
    "parent": "140100",
    "longitude": 112.38708511796754,
    "latitude": 37.593242447369754
  },
  {
    "name": "阳曲县",
    "value": "140122",
    "parent": "140100",
    "longitude": 112.67265853686881,
    "latitude": 38.158246373697736
  },
  {
    "name": "娄烦县",
    "value": "140123",
    "parent": "140100",
    "longitude": 111.79782092799525,
    "latitude": 38.03458404313278
  },
  {
    "name": "古交市",
    "value": "140181",
    "parent": "140100",
    "longitude": 112.10773902369787,
    "latitude": 37.905179282549966
  },
  {
    "name": "城区",
    "value": "140202",
    "parent": "140200",
    "longitude": 113.2969658727473,
    "latitude": 40.10254286655904
  },
  {
    "name": "矿区",
    "value": "140203",
    "parent": "140200",
    "longitude": 113.04700175830278,
    "latitude": 40.03649563499491
  },
  {
    "name": "南郊区",
    "value": "140211",
    "parent": "140200",
    "longitude": 113.22645661564142,
    "latitude": 40.05189138740657
  },
  {
    "name": "新荣区",
    "value": "140212",
    "parent": "140200",
    "longitude": 113.2368941171924,
    "latitude": 40.26712712757409
  },
  {
    "name": "阳高县",
    "value": "140221",
    "parent": "140200",
    "longitude": 113.82318140606378,
    "latitude": 40.222311526135286
  },
  {
    "name": "天镇县",
    "value": "140222",
    "parent": "140200",
    "longitude": 114.16812988719342,
    "latitude": 40.403528534338385
  },
  {
    "name": "广灵县",
    "value": "140223",
    "parent": "140200",
    "longitude": 114.16170176526545,
    "latitude": 39.76899447951967
  },
  {
    "name": "灵丘县",
    "value": "140224",
    "parent": "140200",
    "longitude": 114.2130951742517,
    "latitude": 39.37726777734759
  },
  {
    "name": "浑源县",
    "value": "140225",
    "parent": "140200",
    "longitude": 113.71075899599177,
    "latitude": 39.634162361299076
  },
  {
    "name": "左云县",
    "value": "140226",
    "parent": "140200",
    "longitude": 112.77785639075854,
    "latitude": 40.00073796306882
  },
  {
    "name": "大同县",
    "value": "140227",
    "parent": "140200",
    "longitude": 113.58386582098244,
    "latitude": 40.00162748889317
  },
  {
    "name": "城区",
    "value": "140302",
    "parent": "140300",
    "longitude": 113.61283811718747,
    "latitude": 37.85786536146987
  },
  {
    "name": "矿区",
    "value": "140303",
    "parent": "140300",
    "longitude": 113.54077065934398,
    "latitude": 37.89080424451875
  },
  {
    "name": "郊区",
    "value": "140311",
    "parent": "140300",
    "longitude": 113.56808615363028,
    "latitude": 37.91150391111448
  },
  {
    "name": "平定县",
    "value": "140321",
    "parent": "140300",
    "longitude": 113.76897794042118,
    "latitude": 37.84927141730018
  },
  {
    "name": "盂县",
    "value": "140322",
    "parent": "140300",
    "longitude": 113.36096660369275,
    "latitude": 38.22938573414654
  },
  {
    "name": "城区",
    "value": "140402",
    "parent": "140400",
    "longitude": 113.1231693582736,
    "latitude": 36.18451119211299
  },
  {
    "name": "郊区",
    "value": "140411",
    "parent": "140400",
    "longitude": 113.11069620660645,
    "latitude": 36.27033955841271
  },
  {
    "name": "长治县",
    "value": "140421",
    "parent": "140400",
    "longitude": 113.08619419793796,
    "latitude": 36.024679976201455
  },
  {
    "name": "襄垣县",
    "value": "140423",
    "parent": "140400",
    "longitude": 112.98897348398155,
    "latitude": 36.5802007857545
  },
  {
    "name": "屯留县",
    "value": "140424",
    "parent": "140400",
    "longitude": 112.75036278967234,
    "latitude": 36.34260975107634
  },
  {
    "name": "平顺县",
    "value": "140425",
    "parent": "140400",
    "longitude": 113.5336889763453,
    "latitude": 36.22179415309129
  },
  {
    "name": "黎城县",
    "value": "140426",
    "parent": "140400",
    "longitude": 113.39685159378696,
    "latitude": 36.61936761027767
  },
  {
    "name": "壶关县",
    "value": "140427",
    "parent": "140400",
    "longitude": 113.37199790438082,
    "latitude": 35.99265193372007
  },
  {
    "name": "长子县",
    "value": "140428",
    "parent": "140400",
    "longitude": 112.80225403294276,
    "latitude": 36.11099940201891
  },
  {
    "name": "武乡县",
    "value": "140429",
    "parent": "140400",
    "longitude": 112.96751985957796,
    "latitude": 36.888322821208945
  },
  {
    "name": "沁县",
    "value": "140430",
    "parent": "140400",
    "longitude": 112.65221013617266,
    "latitude": 36.70738347604991
  },
  {
    "name": "沁源县",
    "value": "140431",
    "parent": "140400",
    "longitude": 112.29009399196951,
    "latitude": 36.70156663948841
  },
  {
    "name": "潞城市",
    "value": "140481",
    "parent": "140400",
    "longitude": 113.25438708828356,
    "latitude": 36.37440627323794
  },
  {
    "name": "城区",
    "value": "140502",
    "parent": "140500",
    "longitude": 112.84269710528571,
    "latitude": 35.51359327046841
  },
  {
    "name": "沁水县",
    "value": "140521",
    "parent": "140500",
    "longitude": 112.37742990986709,
    "latitude": 35.75148911815105
  },
  {
    "name": "阳城县",
    "value": "140522",
    "parent": "140500",
    "longitude": 112.36152699508159,
    "latitude": 35.426540841161405
  },
  {
    "name": "陵川县",
    "value": "140524",
    "parent": "140500",
    "longitude": 113.34338659862745,
    "latitude": 35.69074389791869
  },
  {
    "name": "泽州县",
    "value": "140525",
    "parent": "140500",
    "longitude": 112.87098535032666,
    "latitude": 35.47585132549579
  },
  {
    "name": "高平市",
    "value": "140581",
    "parent": "140500",
    "longitude": 112.93511535361624,
    "latitude": 35.809742457990794
  },
  {
    "name": "朔城区",
    "value": "140602",
    "parent": "140600",
    "longitude": 112.55620015259842,
    "latitude": 39.24327243723846
  },
  {
    "name": "平鲁区",
    "value": "140603",
    "parent": "140600",
    "longitude": 112.30434987236274,
    "latitude": 39.640007394397635
  },
  {
    "name": "山阴县",
    "value": "140621",
    "parent": "140600",
    "longitude": 112.78680490548865,
    "latitude": 39.52104967313714
  },
  {
    "name": "应县",
    "value": "140622",
    "parent": "140600",
    "longitude": 113.26059286958083,
    "latitude": 39.50931604368569
  },
  {
    "name": "右玉县",
    "value": "140623",
    "parent": "140600",
    "longitude": 112.42167745341453,
    "latitude": 40.00813570646716
  },
  {
    "name": "怀仁县",
    "value": "140624",
    "parent": "140600",
    "longitude": 113.11230462343235,
    "latitude": 39.79357083603243
  },
  {
    "name": "榆次区",
    "value": "140702",
    "parent": "140700",
    "longitude": 112.8437365271623,
    "latitude": 37.65082468905364
  },
  {
    "name": "榆社县",
    "value": "140721",
    "parent": "140700",
    "longitude": 112.95418082333455,
    "latitude": 37.14004998159083
  },
  {
    "name": "左权县",
    "value": "140722",
    "parent": "140700",
    "longitude": 113.47453786444105,
    "latitude": 37.03279458537997
  },
  {
    "name": "和顺县",
    "value": "140723",
    "parent": "140700",
    "longitude": 113.47493445138039,
    "latitude": 37.348373699108116
  },
  {
    "name": "昔阳县",
    "value": "140724",
    "parent": "140700",
    "longitude": 113.76210572071082,
    "latitude": 37.563418385071685
  },
  {
    "name": "寿阳县",
    "value": "140725",
    "parent": "140700",
    "longitude": 113.14161086395431,
    "latitude": 37.82511891440681
  },
  {
    "name": "太谷县",
    "value": "140726",
    "parent": "140700",
    "longitude": 112.73643253248883,
    "latitude": 37.407696414458925
  },
  {
    "name": "祁县",
    "value": "140727",
    "parent": "140700",
    "longitude": 112.46906595172106,
    "latitude": 37.29219808662871
  },
  {
    "name": "平遥县",
    "value": "140728",
    "parent": "140700",
    "longitude": 112.26549326017494,
    "latitude": 37.14808977846167
  },
  {
    "name": "灵石县",
    "value": "140729",
    "parent": "140700",
    "longitude": 111.73550355034705,
    "latitude": 36.834487193362
  },
  {
    "name": "介休市",
    "value": "140781",
    "parent": "140700",
    "longitude": 111.99518801957157,
    "latitude": 37.02547627593959
  },
  {
    "name": "盐湖区",
    "value": "140802",
    "parent": "140800",
    "longitude": 110.96193094165363,
    "latitude": 35.0636768789324
  },
  {
    "name": "临猗县",
    "value": "140821",
    "parent": "140800",
    "longitude": 110.62589540588894,
    "latitude": 35.14937950112054
  },
  {
    "name": "万荣县",
    "value": "140822",
    "parent": "140800",
    "longitude": 110.71553950498584,
    "latitude": 35.38813401365165
  },
  {
    "name": "闻喜县",
    "value": "140823",
    "parent": "140800",
    "longitude": 111.31928675077734,
    "latitude": 35.37375315700039
  },
  {
    "name": "稷山县",
    "value": "140824",
    "parent": "140800",
    "longitude": 110.96512183757373,
    "latitude": 35.59826692410956
  },
  {
    "name": "新绛县",
    "value": "140825",
    "parent": "140800",
    "longitude": 111.17287529232247,
    "latitude": 35.63158254050748
  },
  {
    "name": "绛县",
    "value": "140826",
    "parent": "140800",
    "longitude": 111.64482039841182,
    "latitude": 35.49857853280774
  },
  {
    "name": "垣曲县",
    "value": "140827",
    "parent": "140800",
    "longitude": 111.82478688141815,
    "latitude": 35.22158415539342
  },
  {
    "name": "夏县",
    "value": "140828",
    "parent": "140800",
    "longitude": 111.35838628884602,
    "latitude": 35.126679510783745
  },
  {
    "name": "平陆县",
    "value": "140829",
    "parent": "140800",
    "longitude": 111.25110932093526,
    "latitude": 34.88864577444809
  },
  {
    "name": "芮城县",
    "value": "140830",
    "parent": "140800",
    "longitude": 110.61649553805749,
    "latitude": 34.70953476044693
  },
  {
    "name": "永济市",
    "value": "140881",
    "parent": "140800",
    "longitude": 110.48894872130789,
    "latitude": 34.89467151075451
  },
  {
    "name": "河津市",
    "value": "140882",
    "parent": "140800",
    "longitude": 110.70853926352623,
    "latitude": 35.63189104909055
  },
  {
    "name": "忻府区",
    "value": "140902",
    "parent": "140900",
    "longitude": 112.60520013418204,
    "latitude": 38.43783196445267
  },
  {
    "name": "定襄县",
    "value": "140921",
    "parent": "140900",
    "longitude": 113.03558876456275,
    "latitude": 38.516749763878394
  },
  {
    "name": "五台县",
    "value": "140922",
    "parent": "140900",
    "longitude": 113.442104045353,
    "latitude": 38.77817400149207
  },
  {
    "name": "代县",
    "value": "140923",
    "parent": "140900",
    "longitude": 113.05058168824989,
    "latitude": 39.09319722406683
  },
  {
    "name": "繁峙县",
    "value": "140924",
    "parent": "140900",
    "longitude": 113.59621356700134,
    "latitude": 39.20475699470928
  },
  {
    "name": "宁武县",
    "value": "140925",
    "parent": "140900",
    "longitude": 112.19389583349412,
    "latitude": 38.82188966634485
  },
  {
    "name": "静乐县",
    "value": "140926",
    "parent": "140900",
    "longitude": 112.06499425223294,
    "latitude": 38.40006715410195
  },
  {
    "name": "神池县",
    "value": "140927",
    "parent": "140900",
    "longitude": 112.00991986754168,
    "latitude": 39.17305344565403
  },
  {
    "name": "五寨县",
    "value": "140928",
    "parent": "140900",
    "longitude": 111.7447571439168,
    "latitude": 39.00873085798386
  },
  {
    "name": "岢岚县",
    "value": "140929",
    "parent": "140900",
    "longitude": 111.54356839150942,
    "latitude": 38.73795692605971
  },
  {
    "name": "河曲县",
    "value": "140930",
    "parent": "140900",
    "longitude": 111.3598292600992,
    "latitude": 39.20643952863144
  },
  {
    "name": "保德县",
    "value": "140931",
    "parent": "140900",
    "longitude": 111.14283481360566,
    "latitude": 38.88713524704388
  },
  {
    "name": "偏关县",
    "value": "140932",
    "parent": "140900",
    "longitude": 111.67190327634798,
    "latitude": 39.46464923288074
  },
  {
    "name": "原平市",
    "value": "140981",
    "parent": "140900",
    "longitude": 112.68212831914165,
    "latitude": 38.83887617274653
  },
  {
    "name": "尧都区",
    "value": "141002",
    "parent": "141000",
    "longitude": 111.47466486210607,
    "latitude": 36.125936912419135
  },
  {
    "name": "曲沃县",
    "value": "141021",
    "parent": "141000",
    "longitude": 111.52704105622857,
    "latitude": 35.704200978944485
  },
  {
    "name": "翼城县",
    "value": "141022",
    "parent": "141000",
    "longitude": 111.83920947478445,
    "latitude": 35.69539758217851
  },
  {
    "name": "襄汾县",
    "value": "141023",
    "parent": "141000",
    "longitude": 111.3859530953563,
    "latitude": 35.87420402995319
  },
  {
    "name": "洪洞县",
    "value": "141024",
    "parent": "141000",
    "longitude": 111.65937789134962,
    "latitude": 36.32551418032607
  },
  {
    "name": "古县",
    "value": "141025",
    "parent": "141000",
    "longitude": 112.01124254119023,
    "latitude": 36.30382253103803
  },
  {
    "name": "安泽县",
    "value": "141026",
    "parent": "141000",
    "longitude": 112.30790366346643,
    "latitude": 36.164295531066124
  },
  {
    "name": "浮山县",
    "value": "141027",
    "parent": "141000",
    "longitude": 111.9284088739819,
    "latitude": 35.94583076600584
  },
  {
    "name": "吉县",
    "value": "141028",
    "parent": "141000",
    "longitude": 110.72816197039876,
    "latitude": 36.15867731748437
  },
  {
    "name": "乡宁县",
    "value": "141029",
    "parent": "141000",
    "longitude": 110.94412841404447,
    "latitude": 35.925119179377575
  },
  {
    "name": "大宁县",
    "value": "141030",
    "parent": "141000",
    "longitude": 110.71080544252996,
    "latitude": 36.432636300531584
  },
  {
    "name": "隰县",
    "value": "141031",
    "parent": "141000",
    "longitude": 111.00996531616914,
    "latitude": 36.711950508392185
  },
  {
    "name": "永和县",
    "value": "141032",
    "parent": "141000",
    "longitude": 110.6178981835499,
    "latitude": 36.73713736746178
  },
  {
    "name": "蒲县",
    "value": "141033",
    "parent": "141000",
    "longitude": 111.16235867374708,
    "latitude": 36.42459969887894
  },
  {
    "name": "汾西县",
    "value": "141034",
    "parent": "141000",
    "longitude": 111.48314834543358,
    "latitude": 36.64278138950399
  },
  {
    "name": "侯马市",
    "value": "141081",
    "parent": "141000",
    "longitude": 111.37150924675753,
    "latitude": 35.62178548787969
  },
  {
    "name": "霍州市",
    "value": "141082",
    "parent": "141000",
    "longitude": 111.83083562619586,
    "latitude": 36.59967782911543
  },
  {
    "name": "离石区",
    "value": "141102",
    "parent": "141100",
    "longitude": 111.31314199347,
    "latitude": 37.55233925490295
  },
  {
    "name": "文水县",
    "value": "141121",
    "parent": "141100",
    "longitude": 111.96499464977616,
    "latitude": 37.459705909704425
  },
  {
    "name": "交城县",
    "value": "141122",
    "parent": "141100",
    "longitude": 111.81992715422206,
    "latitude": 37.68704558482044
  },
  {
    "name": "兴县",
    "value": "141123",
    "parent": "141100",
    "longitude": 111.06931108239739,
    "latitude": 38.39226258394571
  },
  {
    "name": "临县",
    "value": "141124",
    "parent": "141100",
    "longitude": 110.90114744504105,
    "latitude": 37.96286739413805
  },
  {
    "name": "柳林县",
    "value": "141125",
    "parent": "141100",
    "longitude": 110.87692675414752,
    "latitude": 37.403754146297516
  },
  {
    "name": "石楼县",
    "value": "141126",
    "parent": "141100",
    "longitude": 110.75347868182924,
    "latitude": 37.03514510862604
  },
  {
    "name": "岚县",
    "value": "141127",
    "parent": "141100",
    "longitude": 111.60664055967526,
    "latitude": 38.343813372011674
  },
  {
    "name": "方山县",
    "value": "141128",
    "parent": "141100",
    "longitude": 111.33797892211047,
    "latitude": 37.886687741974335
  },
  {
    "name": "中阳县",
    "value": "141129",
    "parent": "141100",
    "longitude": 111.1859035077197,
    "latitude": 37.26631751080384
  },
  {
    "name": "交口县",
    "value": "141130",
    "parent": "141100",
    "longitude": 111.31592365888334,
    "latitude": 36.957718536995806
  },
  {
    "name": "孝义市",
    "value": "141181",
    "parent": "141100",
    "longitude": 111.63764576631374,
    "latitude": 37.118132778216676
  },
  {
    "name": "汾阳市",
    "value": "141182",
    "parent": "141100",
    "longitude": 111.74599591288157,
    "latitude": 37.31676430910595
  },
  {
    "name": "呼和浩特市",
    "value": "150100",
    "parent": "150000",
    "longitude": 0.0,
    "latitude": 0.0
  },
  {
    "name": "包头市",
    "value": "150200",
    "parent": "150000",
    "longitude": 0.0,
    "latitude": 0.0
  },
  {
    "name": "乌海市",
    "value": "150300",
    "parent": "150000",
    "longitude": 0.0,
    "latitude": 0.0
  },
  {
    "name": "赤峰市",
    "value": "150400",
    "parent": "150000",
    "longitude": 0.0,
    "latitude": 0.0
  },
  {
    "name": "通辽市",
    "value": "150500",
    "parent": "150000",
    "longitude": 0.0,
    "latitude": 0.0
  },
  {
    "name": "鄂尔多斯市",
    "value": "150600",
    "parent": "150000",
    "longitude": 0.0,
    "latitude": 0.0
  },
  {
    "name": "呼伦贝尔市",
    "value": "150700",
    "parent": "150000",
    "longitude": 0.0,
    "latitude": 0.0
  },
  {
    "name": "巴彦淖尔市",
    "value": "150800",
    "parent": "150000",
    "longitude": 0.0,
    "latitude": 0.0
  },
  {
    "name": "乌兰察布市",
    "value": "150900",
    "parent": "150000",
    "longitude": 0.0,
    "latitude": 0.0
  },
  {
    "name": "兴安盟",
    "value": "152200",
    "parent": "150000",
    "longitude": 0.0,
    "latitude": 0.0
  },
  {
    "name": "锡林郭勒盟",
    "value": "152500",
    "parent": "150000",
    "longitude": 0.0,
    "latitude": 0.0
  },
  {
    "name": "阿拉善盟",
    "value": "152900",
    "parent": "150000",
    "longitude": 0.0,
    "latitude": 0.0
  },
  {
    "name": "新城区",
    "value": "150102",
    "parent": "150100",
    "longitude": 111.79132678713937,
    "latitude": 40.9293607787756
  },
  {
    "name": "回民区",
    "value": "150103",
    "parent": "150100",
    "longitude": 111.59688559509647,
    "latitude": 40.83889476378789
  },
  {
    "name": "玉泉区",
    "value": "150104",
    "parent": "150100",
    "longitude": 111.65855345988149,
    "latitude": 40.74738667204219
  },
  {
    "name": "赛罕区",
    "value": "150105",
    "parent": "150100",
    "longitude": 111.87633478500686,
    "latitude": 40.78886415235602
  },
  {
    "name": "土默特左旗",
    "value": "150121",
    "parent": "150100",
    "longitude": 111.23470409261432,
    "latitude": 40.68998701613934
  },
  {
    "name": "托克托县",
    "value": "150122",
    "parent": "150100",
    "longitude": 111.31970020313491,
    "latitude": 40.361083978493966
  },
  {
    "name": "和林格尔县",
    "value": "150123",
    "parent": "150100",
    "longitude": 111.90169267122437,
    "latitude": 40.3338684420585
  },
  {
    "name": "清水河县",
    "value": "150124",
    "parent": "150100",
    "longitude": 111.70623630690847,
    "latitude": 39.889117744684924
  },
  {
    "name": "武川县",
    "value": "150125",
    "parent": "150100",
    "longitude": 111.17957193814095,
    "latitude": 41.11620438740027
  },
  {
    "name": "东河区",
    "value": "150202",
    "parent": "150200",
    "longitude": 110.07014136051491,
    "latitude": 40.589124487996266
  },
  {
    "name": "昆都仑区",
    "value": "150203",
    "parent": "150200",
    "longitude": 109.80683355282166,
    "latitude": 40.658057498223656
  },
  {
    "name": "青山区",
    "value": "150204",
    "parent": "150200",
    "longitude": 109.90367483934152,
    "latitude": 40.65877795947621
  },
  {
    "name": "石拐区",
    "value": "150205",
    "parent": "150200",
    "longitude": 110.29921474522288,
    "latitude": 40.716464297271564
  },
  {
    "name": "白云鄂博矿区",
    "value": "150206",
    "parent": "150200",
    "longitude": 109.98916893149352,
    "latitude": 41.78999250232638
  },
  {
    "name": "九原区",
    "value": "150207",
    "parent": "150200",
    "longitude": 109.94919745919572,
    "latitude": 40.62720227827458
  },
  {
    "name": "土默特右旗",
    "value": "150221",
    "parent": "150200",
    "longitude": 110.69325794787949,
    "latitude": 40.52799576437404
  },
  {
    "name": "固阳县",
    "value": "150222",
    "parent": "150200",
    "longitude": 110.16759209358126,
    "latitude": 41.104725412273865
  },
  {
    "name": "达尔罕茂明安联合旗",
    "value": "150223",
    "parent": "150200",
    "longitude": 110.28618869999073,
    "latitude": 41.94350714826722
  },
  {
    "name": "海勃湾区",
    "value": "150302",
    "parent": "150300",
    "longitude": 106.86148184332198,
    "latitude": 39.73483365127534
  },
  {
    "name": "海南区",
    "value": "150303",
    "parent": "150300",
    "longitude": 106.92539717866242,
    "latitude": 39.29620947939178
  },
  {
    "name": "乌达区",
    "value": "150304",
    "parent": "150300",
    "longitude": 106.72585891132533,
    "latitude": 39.53587770143305
  },
  {
    "name": "红山区",
    "value": "150402",
    "parent": "150400",
    "longitude": 118.99810293421473,
    "latitude": 42.286232134078965
  },
  {
    "name": "元宝山区",
    "value": "150403",
    "parent": "150400",
    "longitude": 119.26816941290396,
    "latitude": 42.18413064880197
  },
  {
    "name": "松山区",
    "value": "150404",
    "parent": "150400",
    "longitude": 118.75710571165897,
    "latitude": 42.26875301528874
  },
  {
    "name": "阿鲁科尔沁旗",
    "value": "150421",
    "parent": "150400",
    "longitude": 120.05324069383768,
    "latitude": 44.19595659741144
  },
  {
    "name": "巴林左旗",
    "value": "150422",
    "parent": "150400",
    "longitude": 119.28076636509114,
    "latitude": 44.203430813088474
  },
  {
    "name": "巴林右旗",
    "value": "150423",
    "parent": "150400",
    "longitude": 118.94608974309946,
    "latitude": 43.68478663145437
  },
  {
    "name": "林西县",
    "value": "150424",
    "parent": "150400",
    "longitude": 118.11021614789775,
    "latitude": 43.7714622114794
  },
  {
    "name": "克什克腾旗",
    "value": "150425",
    "parent": "150400",
    "longitude": 117.35857031121249,
    "latitude": 43.21823717668056
  },
  {
    "name": "翁牛特旗",
    "value": "150426",
    "parent": "150400",
    "longitude": 119.2546429407495,
    "latitude": 42.97397991925768
  },
  {
    "name": "喀喇沁旗",
    "value": "150428",
    "parent": "150400",
    "longitude": 118.6670560135748,
    "latitude": 41.908351449935225
  },
  {
    "name": "宁城县",
    "value": "150429",
    "parent": "150400",
    "longitude": 118.90549936908933,
    "latitude": 41.5710408671387
  },
  {
    "name": "敖汉旗",
    "value": "150430",
    "parent": "150400",
    "longitude": 120.15771329609198,
    "latitude": 42.43059223820326
  },
  {
    "name": "科尔沁区",
    "value": "150502",
    "parent": "150500",
    "longitude": 122.29129415355533,
    "latitude": 43.65829014983674
  },
  {
    "name": "科尔沁左翼中旗",
    "value": "150521",
    "parent": "150500",
    "longitude": 122.4991800444191,
    "latitude": 44.0575792851999
  },
  {
    "name": "科尔沁左翼后旗",
    "value": "150522",
    "parent": "150500",
    "longitude": 122.69734535161646,
    "latitude": 43.19608275166495
  },
  {
    "name": "开鲁县",
    "value": "150523",
    "parent": "150500",
    "longitude": 121.32409399005317,
    "latitude": 43.73494195439141
  },
  {
    "name": "库伦旗",
    "value": "150524",
    "parent": "150500",
    "longitude": 121.57303788589562,
    "latitude": 42.81003821531393
  },
  {
    "name": "奈曼旗",
    "value": "150525",
    "parent": "150500",
    "longitude": 120.9407889963667,
    "latitude": 42.97238301073924
  },
  {
    "name": "扎鲁特旗",
    "value": "150526",
    "parent": "150500",
    "longitude": 120.59602806799069,
    "latitude": 44.822451301929654
  },
  {
    "name": "霍林郭勒市",
    "value": "150581",
    "parent": "150500",
    "longitude": 119.57974844021628,
    "latitude": 45.528106056329776
  },
  {
    "name": "东胜区",
    "value": "150602",
    "parent": "150600",
    "longitude": 109.76441928582383,
    "latitude": 39.805585913145606
  },
  {
    "name": "康巴什区",
    "value": "150603",
    "parent": "150600",
    "longitude": 109.8408756935125,
    "latitude": 39.640791926893456
  },
  {
    "name": "达拉特旗",
    "value": "150621",
    "parent": "150600",
    "longitude": 109.86619090676072,
    "latitude": 40.22026447389275
  },
  {
    "name": "准格尔旗",
    "value": "150622",
    "parent": "150600",
    "longitude": 110.88623942079244,
    "latitude": 39.794724895630154
  },
  {
    "name": "鄂托克前旗",
    "value": "150623",
    "parent": "150600",
    "longitude": 107.59700999652225,
    "latitude": 38.27593828728808
  },
  {
    "name": "鄂托克旗",
    "value": "150624",
    "parent": "150600",
    "longitude": 107.75202023325484,
    "latitude": 39.28629659327761
  },
  {
    "name": "杭锦旗",
    "value": "150625",
    "parent": "150600",
    "longitude": 108.21282820431726,
    "latitude": 40.212873152737515
  },
  {
    "name": "乌审旗",
    "value": "150626",
    "parent": "150600",
    "longitude": 108.88966323665873,
    "latitude": 38.64047514723402
  },
  {
    "name": "伊金霍洛旗",
    "value": "150627",
    "parent": "150600",
    "longitude": 109.99370625145134,
    "latitude": 39.81648956060153
  },
  {
    "name": "海拉尔区",
    "value": "150702",
    "parent": "150700",
    "longitude": 120.04288208342074,
    "latitude": 49.27924545620167
  },
  {
    "name": "扎赉诺尔区",
    "value": "150703",
    "parent": "150700",
    "longitude": 117.72318498535981,
    "latitude": 49.46148156810758
  },
  {
    "name": "阿荣旗",
    "value": "150721",
    "parent": "150700",
    "longitude": 123.17195423134109,
    "latitude": 48.63998874107147
  },
  {
    "name": "莫力达瓦达斡尔族自治旗",
    "value": "150722",
    "parent": "150700",
    "longitude": 124.47443404901212,
    "latitude": 49.10488665171792
  },
  {
    "name": "鄂伦春自治旗",
    "value": "150723",
    "parent": "150700",
    "longitude": 123.81727783781866,
    "latitude": 50.348754571527884
  },
  {
    "name": "鄂温克族自治旗",
    "value": "150724",
    "parent": "150700",
    "longitude": 120.06748322167265,
    "latitude": 48.49913651459894
  },
  {
    "name": "陈巴尔虎旗",
    "value": "150725",
    "parent": "150700",
    "longitude": 119.53520765754227,
    "latitude": 49.60528127676082
  },
  {
    "name": "新巴尔虎左旗",
    "value": "150726",
    "parent": "150700",
    "longitude": 118.62152477908603,
    "latitude": 48.436391878769655
  },
  {
    "name": "新巴尔虎右旗",
    "value": "150727",
    "parent": "150700",
    "longitude": 116.80218434220377,
    "latitude": 48.64497891537873
  },
  {
    "name": "满洲里市",
    "value": "150781",
    "parent": "150700",
    "longitude": 117.60368677619397,
    "latitude": 49.500031717154286
  },
  {
    "name": "牙克石市",
    "value": "150782",
    "parent": "150700",
    "longitude": 121.51266780551569,
    "latitude": 49.32999593959703
  },
  {
    "name": "扎兰屯市",
    "value": "150783",
    "parent": "150700",
    "longitude": 121.92920216562221,
    "latitude": 47.743403383099974
  },
  {
    "name": "额尔古纳市",
    "value": "150784",
    "parent": "150700",
    "longitude": 120.65276364823939,
    "latitude": 51.660818880977494
  },
  {
    "name": "根河市",
    "value": "150785",
    "parent": "150700",
    "longitude": 121.79771324216983,
    "latitude": 51.37592516126969
  },
  {
    "name": "临河区",
    "value": "150802",
    "parent": "150800",
    "longitude": 107.44183964666986,
    "latitude": 40.93201822322359
  },
  {
    "name": "五原县",
    "value": "150821",
    "parent": "150800",
    "longitude": 108.07228406064701,
    "latitude": 41.04542666481667
  },
  {
    "name": "磴口县",
    "value": "150822",
    "parent": "150800",
    "longitude": 106.70000005669506,
    "latitude": 40.55518106886025
  },
  {
    "name": "乌拉特前旗",
    "value": "150823",
    "parent": "150800",
    "longitude": 109.10529705882409,
    "latitude": 40.90599326088688
  },
  {
    "name": "乌拉特中旗",
    "value": "150824",
    "parent": "150800",
    "longitude": 108.46454180074281,
    "latitude": 41.83104452742754
  },
  {
    "name": "乌拉特后旗",
    "value": "150825",
    "parent": "150800",
    "longitude": 106.41380804671012,
    "latitude": 41.53194458396023
  },
  {
    "name": "杭锦后旗",
    "value": "150826",
    "parent": "150800",
    "longitude": 107.03345374933102,
    "latitude": 40.89087078077926
  },
  {
    "name": "集宁区",
    "value": "150902",
    "parent": "150900",
    "longitude": 113.11283222874056,
    "latitude": 41.02776597146905
  },
  {
    "name": "卓资县",
    "value": "150921",
    "parent": "150900",
    "longitude": 112.44337671416162,
    "latitude": 40.958869485808286
  },
  {
    "name": "化德县",
    "value": "150922",
    "parent": "150900",
    "longitude": 114.1657379065639,
    "latitude": 41.979126377537625
  },
  {
    "name": "商都县",
    "value": "150923",
    "parent": "150900",
    "longitude": 113.62215528367015,
    "latitude": 41.72651685156371
  },
  {
    "name": "兴和县",
    "value": "150924",
    "parent": "150900",
    "longitude": 113.77372051762035,
    "latitude": 40.95266652177794
  },
  {
    "name": "凉城县",
    "value": "150925",
    "parent": "150900",
    "longitude": 112.55043247172017,
    "latitude": 40.502780210603895
  },
  {
    "name": "察哈尔右翼前旗",
    "value": "150926",
    "parent": "150900",
    "longitude": 113.24109639163109,
    "latitude": 40.981709597107056
  },
  {
    "name": "察哈尔右翼中旗",
    "value": "150927",
    "parent": "150900",
    "longitude": 112.47074335399404,
    "latitude": 41.428255371505024
  },
  {
    "name": "察哈尔右翼后旗",
    "value": "150928",
    "parent": "150900",
    "longitude": 113.06969288248311,
    "latitude": 41.5294830907894
  },
  {
    "name": "四子王旗",
    "value": "150929",
    "parent": "150900",
    "longitude": 111.58903652853078,
    "latitude": 42.30714575606971
  },
  {
    "name": "丰镇市",
    "value": "150981",
    "parent": "150900",
    "longitude": 113.30867650253073,
    "latitude": 40.558336025296484
  },
  {
    "name": "乌兰浩特市",
    "value": "152201",
    "parent": "152200",
    "longitude": 122.08153380950299,
    "latitude": 46.11694357016496
  },
  {
    "name": "阿尔山市",
    "value": "152202",
    "parent": "152200",
    "longitude": 120.35753387505011,
    "latitude": 47.16369633572684
  },
  {
    "name": "科尔沁右翼前旗",
    "value": "152221",
    "parent": "152200",
    "longitude": 121.22152365341796,
    "latitude": 46.3340253808984
  },
  {
    "name": "科尔沁右翼中旗",
    "value": "152222",
    "parent": "152200",
    "longitude": 121.19851019319081,
    "latitude": 45.24206881566815
  },
  {
    "name": "扎赉特旗",
    "value": "152223",
    "parent": "152200",
    "longitude": 122.3881462578201,
    "latitude": 46.7908077863969
  },
  {
    "name": "突泉县",
    "value": "152224",
    "parent": "152200",
    "longitude": 121.51921179351145,
    "latitude": 45.63286621909464
  },
  {
    "name": "二连浩特市",
    "value": "152501",
    "parent": "152500",
    "longitude": 111.9661784137779,
    "latitude": 43.4177804582257
  },
  {
    "name": "锡林浩特市",
    "value": "152502",
    "parent": "152500",
    "longitude": 116.13694826431457,
    "latitude": 44.07896112909946
  },
  {
    "name": "阿巴嘎旗",
    "value": "152522",
    "parent": "152500",
    "longitude": 114.89347121165105,
    "latitude": 44.276507422523316
  },
  {
    "name": "苏尼特左旗",
    "value": "152523",
    "parent": "152500",
    "longitude": 113.14030742275366,
    "latitude": 44.03923804325237
  },
  {
    "name": "苏尼特右旗",
    "value": "152524",
    "parent": "152500",
    "longitude": 112.91159981029253,
    "latitude": 42.900963777858095
  },
  {
    "name": "东乌珠穆沁旗",
    "value": "152525",
    "parent": "152500",
    "longitude": 117.81045041340154,
    "latitude": 45.82666479333843
  },
  {
    "name": "西乌珠穆沁旗",
    "value": "152526",
    "parent": "152500",
    "longitude": 117.81696314272835,
    "latitude": 44.715902995291906
  },
  {
    "name": "太仆寺旗",
    "value": "152527",
    "parent": "152500",
    "longitude": 115.30455821777325,
    "latitude": 41.90621563504143
  },
  {
    "name": "镶黄旗",
    "value": "152528",
    "parent": "152500",
    "longitude": 114.12058911409082,
    "latitude": 42.368275700926404
  },
  {
    "name": "正镶白旗",
    "value": "152529",
    "parent": "152500",
    "longitude": 115.0243472845073,
    "latitude": 42.55484297003264
  },
  {
    "name": "正蓝旗",
    "value": "152530",
    "parent": "152500",
    "longitude": 115.94010983058116,
    "latitude": 42.674413879311246
  },
  {
    "name": "多伦县",
    "value": "152531",
    "parent": "152500",
    "longitude": 116.49863867620431,
    "latitude": 42.196600874378895
  },
  {
    "name": "阿拉善左旗",
    "value": "152921",
    "parent": "152900",
    "longitude": 105.0382468419835,
    "latitude": 39.54780640101252
  },
  {
    "name": "阿拉善右旗",
    "value": "152922",
    "parent": "152900",
    "longitude": 102.44385599727482,
    "latitude": 40.186228955604484
  },
  {
    "name": "额济纳旗",
    "value": "152923",
    "parent": "152900",
    "longitude": 100.09951238470514,
    "latitude": 41.69379984316055
  },
  {
    "name": "沈阳市",
    "value": "210100",
    "parent": "210000",
    "longitude": 0.0,
    "latitude": 0.0
  },
  {
    "name": "大连市",
    "value": "210200",
    "parent": "210000",
    "longitude": 0.0,
    "latitude": 0.0
  },
  {
    "name": "鞍山市",
    "value": "210300",
    "parent": "210000",
    "longitude": 0.0,
    "latitude": 0.0
  },
  {
    "name": "抚顺市",
    "value": "210400",
    "parent": "210000",
    "longitude": 0.0,
    "latitude": 0.0
  },
  {
    "name": "本溪市",
    "value": "210500",
    "parent": "210000",
    "longitude": 0.0,
    "latitude": 0.0
  },
  {
    "name": "丹东市",
    "value": "210600",
    "parent": "210000",
    "longitude": 0.0,
    "latitude": 0.0
  },
  {
    "name": "锦州市",
    "value": "210700",
    "parent": "210000",
    "longitude": 0.0,
    "latitude": 0.0
  },
  {
    "name": "营口市",
    "value": "210800",
    "parent": "210000",
    "longitude": 0.0,
    "latitude": 0.0
  },
  {
    "name": "阜新市",
    "value": "210900",
    "parent": "210000",
    "longitude": 0.0,
    "latitude": 0.0
  },
  {
    "name": "辽阳市",
    "value": "211000",
    "parent": "210000",
    "longitude": 0.0,
    "latitude": 0.0
  },
  {
    "name": "盘锦市",
    "value": "211100",
    "parent": "210000",
    "longitude": 0.0,
    "latitude": 0.0
  },
  {
    "name": "铁岭市",
    "value": "211200",
    "parent": "210000",
    "longitude": 0.0,
    "latitude": 0.0
  },
  {
    "name": "朝阳市",
    "value": "211300",
    "parent": "210000",
    "longitude": 0.0,
    "latitude": 0.0
  },
  {
    "name": "葫芦岛市",
    "value": "211400",
    "parent": "210000",
    "longitude": 0.0,
    "latitude": 0.0
  },
  {
    "name": "和平区",
    "value": "210102",
    "parent": "210100",
    "longitude": 123.4143316604605,
    "latitude": 41.7864743957919
  },
  {
    "name": "沈河区",
    "value": "210103",
    "parent": "210100",
    "longitude": 123.45355228300993,
    "latitude": 41.79830464193271
  },
  {
    "name": "大东区",
    "value": "210104",
    "parent": "210100",
    "longitude": 123.49892677690912,
    "latitude": 41.83527908077473
  },
  {
    "name": "皇姑区",
    "value": "210105",
    "parent": "210100",
    "longitude": 123.41537632671833,
    "latitude": 41.84891320457334
  },
  {
    "name": "铁西区",
    "value": "210106",
    "parent": "210100",
    "longitude": 123.35862982907395,
    "latitude": 41.8057241676217
  },
  {
    "name": "苏家屯区",
    "value": "210111",
    "parent": "210100",
    "longitude": 123.42628905168995,
    "latitude": 41.58934515756465
  },
  {
    "name": "浑南区",
    "value": "210112",
    "parent": "210100",
    "longitude": 123.57142909150359,
    "latitude": 41.79415773825549
  },
  {
    "name": "沈北新区",
    "value": "210113",
    "parent": "210100",
    "longitude": 123.51869040269712,
    "latitude": 42.04384997610135
  },
  {
    "name": "于洪区",
    "value": "210114",
    "parent": "210100",
    "longitude": 123.24284697309827,
    "latitude": 41.84355102371217
  },
  {
    "name": "辽中区",
    "value": "210115",
    "parent": "210100",
    "longitude": 122.79857550058897,
    "latitude": 41.500330370097615
  },
  {
    "name": "康平县",
    "value": "210123",
    "parent": "210100",
    "longitude": 123.27359808775667,
    "latitude": 42.765540738312566
  },
  {
    "name": "法库县",
    "value": "210124",
    "parent": "210100",
    "longitude": 123.24889709003406,
    "latitude": 42.41529783956206
  },
  {
    "name": "新民市",
    "value": "210181",
    "parent": "210100",
    "longitude": 122.86641820399001,
    "latitude": 42.01677619384611
  },
  {
    "name": "中山区",
    "value": "210202",
    "parent": "210200",
    "longitude": 121.67796628922625,
    "latitude": 38.900436431991984
  },
  {
    "name": "西岗区",
    "value": "210203",
    "parent": "210200",
    "longitude": 121.6258229781024,
    "latitude": 38.91336952993919
  },
  {
    "name": "沙河口区",
    "value": "210204",
    "parent": "210200",
    "longitude": 121.58261780680284,
    "latitude": 38.921778341674376
  },
  {
    "name": "甘井子区",
    "value": "210211",
    "parent": "210200",
    "longitude": 121.5285003794903,
    "latitude": 38.95546176066109
  },
  {
    "name": "旅顺口区",
    "value": "210212",
    "parent": "210200",
    "longitude": 121.29593564058723,
    "latitude": 38.90829067300293
  },
  {
    "name": "金州区",
    "value": "210213",
    "parent": "210200",
    "longitude": 121.95658248043723,
    "latitude": 39.2986190718601
  },
  {
    "name": "普兰店区",
    "value": "210214",
    "parent": "210200",
    "longitude": 122.21603953088392,
    "latitude": 39.651792833683544
  },
  {
    "name": "长海县",
    "value": "210224",
    "parent": "210200",
    "longitude": 122.74826454271387,
    "latitude": 39.260108530290275
  },
  {
    "name": "瓦房店市",
    "value": "210281",
    "parent": "210200",
    "longitude": 121.7906987887405,
    "latitude": 39.70895639618986
  },
  {
    "name": "庄河市",
    "value": "210283",
    "parent": "210200",
    "longitude": 122.9341452670001,
    "latitude": 39.85890978417193
  },
  {
    "name": "铁东区",
    "value": "210302",
    "parent": "210300",
    "longitude": 123.0207058451798,
    "latitude": 41.118235115557475
  },
  {
    "name": "铁西区",
    "value": "210303",
    "parent": "210300",
    "longitude": 122.98578619475154,
    "latitude": 41.12787247683256
  },
  {
    "name": "立山区",
    "value": "210304",
    "parent": "210300",
    "longitude": 123.04047350707964,
    "latitude": 41.164172891852786
  },
  {
    "name": "千山区",
    "value": "210311",
    "parent": "210300",
    "longitude": 123.01400529455033,
    "latitude": 41.06132852198688
  },
  {
    "name": "台安县",
    "value": "210321",
    "parent": "210300",
    "longitude": 122.44368252760378,
    "latitude": 41.34709974800354
  },
  {
    "name": "岫岩满族自治县",
    "value": "210323",
    "parent": "210300",
    "longitude": 123.34606899825529,
    "latitude": 40.4031809952997
  },
  {
    "name": "海城市",
    "value": "210381",
    "parent": "210300",
    "longitude": 122.79120058219287,
    "latitude": 40.84035424752339
  },
  {
    "name": "新抚区",
    "value": "210402",
    "parent": "210400",
    "longitude": 123.91136857187887,
    "latitude": 41.86978966066434
  },
  {
    "name": "东洲区",
    "value": "210403",
    "parent": "210400",
    "longitude": 124.02924934123958,
    "latitude": 41.833588275171124
  },
  {
    "name": "望花区",
    "value": "210404",
    "parent": "210400",
    "longitude": 123.78599647354824,
    "latitude": 41.86040358877823
  },
  {
    "name": "顺城区",
    "value": "210411",
    "parent": "210400",
    "longitude": 123.90172355544878,
    "latitude": 41.91601413379593
  },
  {
    "name": "抚顺县",
    "value": "210421",
    "parent": "210400",
    "longitude": 124.13658883379826,
    "latitude": 41.75007666959148
  },
  {
    "name": "新宾满族自治县",
    "value": "210422",
    "parent": "210400",
    "longitude": 124.827865564108,
    "latitude": 41.635119411000304
  },
  {
    "name": "清原满族自治县",
    "value": "210423",
    "parent": "210400",
    "longitude": 124.92431743308903,
    "latitude": 42.11888234479133
  },
  {
    "name": "平山区",
    "value": "210502",
    "parent": "210500",
    "longitude": 123.69257521576597,
    "latitude": 41.240400691894976
  },
  {
    "name": "溪湖区",
    "value": "210503",
    "parent": "210500",
    "longitude": 123.71186569777889,
    "latitude": 41.45615399333009
  },
  {
    "name": "明山区",
    "value": "210504",
    "parent": "210500",
    "longitude": 123.90173685037034,
    "latitude": 41.34775211045605
  },
  {
    "name": "南芬区",
    "value": "210505",
    "parent": "210500",
    "longitude": 123.82788014761208,
    "latitude": 41.12271622099884
  },
  {
    "name": "本溪满族自治县",
    "value": "210521",
    "parent": "210500",
    "longitude": 124.15856431847263,
    "latitude": 41.19567023391215
  },
  {
    "name": "桓仁满族自治县",
    "value": "210522",
    "parent": "210500",
    "longitude": 125.29002786999817,
    "latitude": 41.26181587712884
  },
  {
    "name": "元宝区",
    "value": "210602",
    "parent": "210600",
    "longitude": 124.35032097797149,
    "latitude": 40.173197015058
  },
  {
    "name": "振兴区",
    "value": "210603",
    "parent": "210600",
    "longitude": 124.35556286011388,
    "latitude": 40.06703531875242
  },
  {
    "name": "振安区",
    "value": "210604",
    "parent": "210600",
    "longitude": 124.29219665893167,
    "latitude": 40.211546606918645
  },
  {
    "name": "宽甸满族自治县",
    "value": "210624",
    "parent": "210600",
    "longitude": 124.93410611423656,
    "latitude": 40.76614200675351
  },
  {
    "name": "东港市",
    "value": "210681",
    "parent": "210600",
    "longitude": 123.87687027399643,
    "latitude": 39.98121733418355
  },
  {
    "name": "凤城市",
    "value": "210682",
    "parent": "210600",
    "longitude": 124.07296025051131,
    "latitude": 40.57957030665949
  },
  {
    "name": "古塔区",
    "value": "210702",
    "parent": "210700",
    "longitude": 121.12643374509564,
    "latitude": 41.141388193070334
  },
  {
    "name": "凌河区",
    "value": "210703",
    "parent": "210700",
    "longitude": 121.18266452595095,
    "latitude": 41.134380404259545
  },
  {
    "name": "太和区",
    "value": "210711",
    "parent": "210700",
    "longitude": 121.11864471767971,
    "latitude": 41.13683013275284
  },
  {
    "name": "黑山县",
    "value": "210726",
    "parent": "210700",
    "longitude": 122.26073588725585,
    "latitude": 41.79969788559817
  },
  {
    "name": "义县",
    "value": "210727",
    "parent": "210700",
    "longitude": 121.30187737887663,
    "latitude": 41.534928118312024
  },
  {
    "name": "凌海市",
    "value": "210781",
    "parent": "210700",
    "longitude": 121.28557458802773,
    "latitude": 41.15256615509389
  },
  {
    "name": "北镇市",
    "value": "210782",
    "parent": "210700",
    "longitude": 121.86454971391574,
    "latitude": 41.547118023826975
  },
  {
    "name": "站前区",
    "value": "210802",
    "parent": "210800",
    "longitude": 122.26559203010335,
    "latitude": 40.703009826764784
  },
  {
    "name": "西市区",
    "value": "210803",
    "parent": "210800",
    "longitude": 122.21012624622033,
    "latitude": 40.66694904617983
  },
  {
    "name": "鲅鱼圈区",
    "value": "210804",
    "parent": "210800",
    "longitude": 122.17689658107587,
    "latitude": 40.2525844844599
  },
  {
    "name": "老边区",
    "value": "210811",
    "parent": "210800",
    "longitude": 122.33090270339245,
    "latitude": 40.67256543757095
  },
  {
    "name": "盖州市",
    "value": "210881",
    "parent": "210800",
    "longitude": 122.47732679350948,
    "latitude": 40.235441470469254
  },
  {
    "name": "大石桥市",
    "value": "210882",
    "parent": "210800",
    "longitude": 122.57155106236407,
    "latitude": 40.64691545187715
  },
  {
    "name": "海州区",
    "value": "210902",
    "parent": "210900",
    "longitude": 121.6527051298107,
    "latitude": 41.9909024924696
  },
  {
    "name": "新邱区",
    "value": "210903",
    "parent": "210900",
    "longitude": 121.82432100765892,
    "latitude": 42.0746276194683
  },
  {
    "name": "太平区",
    "value": "210904",
    "parent": "210900",
    "longitude": 121.73775310227339,
    "latitude": 42.00945236251975
  },
  {
    "name": "清河门区",
    "value": "210905",
    "parent": "210900",
    "longitude": 121.44683854847442,
    "latitude": 41.75499843933475
  },
  {
    "name": "细河区",
    "value": "210911",
    "parent": "210900",
    "longitude": 121.62755688739776,
    "latitude": 42.043253678757786
  },
  {
    "name": "阜新蒙古族自治县",
    "value": "210921",
    "parent": "210900",
    "longitude": 121.69557778355127,
    "latitude": 42.15750040815685
  },
  {
    "name": "彰武县",
    "value": "210922",
    "parent": "210900",
    "longitude": 122.47417316389497,
    "latitude": 42.52375443552578
  },
  {
    "name": "白塔区",
    "value": "211002",
    "parent": "211000",
    "longitude": 123.17516309965141,
    "latitude": 41.27928581685336
  },
  {
    "name": "文圣区",
    "value": "211003",
    "parent": "211000",
    "longitude": 123.20121638486565,
    "latitude": 41.271122206557244
  },
  {
    "name": "宏伟区",
    "value": "211004",
    "parent": "211000",
    "longitude": 123.22051827535853,
    "latitude": 41.220763801747516
  },
  {
    "name": "弓长岭区",
    "value": "211005",
    "parent": "211000",
    "longitude": 123.42628014056126,
    "latitude": 41.14596964640483
  },
  {
    "name": "太子河区",
    "value": "211011",
    "parent": "211000",
    "longitude": 123.17837427235791,
    "latitude": 41.27459313907113
  },
  {
    "name": "辽阳县",
    "value": "211021",
    "parent": "211000",
    "longitude": 123.2198212620556,
    "latitude": 41.077281158776266
  },
  {
    "name": "灯塔市",
    "value": "211081",
    "parent": "211000",
    "longitude": 123.31257357315098,
    "latitude": 41.42009885708579
  },
  {
    "name": "双台子区",
    "value": "211102",
    "parent": "211100",
    "longitude": 122.0320384364949,
    "latitude": 41.19322451011625
  },
  {
    "name": "兴隆台区",
    "value": "211103",
    "parent": "211100",
    "longitude": 121.96962911034196,
    "latitude": 41.15583088755934
  },
  {
    "name": "大洼区",
    "value": "211104",
    "parent": "211100",
    "longitude": 122.08839097547569,
    "latitude": 40.90589945876604
  },
  {
    "name": "盘山县",
    "value": "211122",
    "parent": "211100",
    "longitude": 121.95216562366241,
    "latitude": 41.193475065521206
  },
  {
    "name": "银州区",
    "value": "211202",
    "parent": "211200",
    "longitude": 123.8585158688938,
    "latitude": 42.248294823184764
  },
  {
    "name": "清河区",
    "value": "211204",
    "parent": "211200",
    "longitude": 124.2757801644583,
    "latitude": 42.50855704819172
  },
  {
    "name": "铁岭县",
    "value": "211221",
    "parent": "211200",
    "longitude": 123.91452868264547,
    "latitude": 42.22276465002401
  },
  {
    "name": "西丰县",
    "value": "211223",
    "parent": "211200",
    "longitude": 124.73850222789196,
    "latitude": 42.7127394290049
  },
  {
    "name": "昌图县",
    "value": "211224",
    "parent": "211200",
    "longitude": 123.94640914451168,
    "latitude": 43.00046211616661
  },
  {
    "name": "调兵山市",
    "value": "211281",
    "parent": "211200",
    "longitude": 123.58434789558939,
    "latitude": 42.44292989053366
  },
  {
    "name": "开原市",
    "value": "211282",
    "parent": "211200",
    "longitude": 124.28377598099235,
    "latitude": 42.47122328912789
  },
  {
    "name": "双塔区",
    "value": "211302",
    "parent": "211300",
    "longitude": 120.4840729020373,
    "latitude": 41.60574018955556
  },
  {
    "name": "龙城区",
    "value": "211303",
    "parent": "211300",
    "longitude": 120.40133294592141,
    "latitude": 41.60622699666226
  },
  {
    "name": "朝阳县",
    "value": "211321",
    "parent": "211300",
    "longitude": 120.30506072918234,
    "latitude": 41.37279590354719
  },
  {
    "name": "建平县",
    "value": "211322",
    "parent": "211300",
    "longitude": 119.63252714815414,
    "latitude": 41.842222586594644
  },
  {
    "name": "喀喇沁左翼蒙古族自治县",
    "value": "211324",
    "parent": "211300",
    "longitude": 119.77553367021963,
    "latitude": 41.143623845035265
  },
  {
    "name": "北票市",
    "value": "211381",
    "parent": "211300",
    "longitude": 120.81188458747066,
    "latitude": 41.86507103149809
  },
  {
    "name": "凌源市",
    "value": "211382",
    "parent": "211300",
    "longitude": 119.2715431268339,
    "latitude": 40.9818011283523
  },
  {
    "name": "连山区",
    "value": "211402",
    "parent": "211400",
    "longitude": 120.68836078009728,
    "latitude": 40.88853734011743
  },
  {
    "name": "龙港区",
    "value": "211403",
    "parent": "211400",
    "longitude": 120.9045859705877,
    "latitude": 40.75099271048868
  },
  {
    "name": "南票区",
    "value": "211404",
    "parent": "211400",
    "longitude": 120.6646450654811,
    "latitude": 41.1370357837713
  },
  {
    "name": "绥中县",
    "value": "211421",
    "parent": "211400",
    "longitude": 120.02630174191806,
    "latitude": 40.30512900582333
  },
  {
    "name": "建昌县",
    "value": "211422",
    "parent": "211400",
    "longitude": 119.83489152944476,
    "latitude": 40.716827705586056
  },
  {
    "name": "兴城市",
    "value": "211481",
    "parent": "211400",
    "longitude": 120.47552727234101,
    "latitude": 40.596284243831505
  },
  {
    "name": "长春市",
    "value": "220100",
    "parent": "220000",
    "longitude": 125.31364242720072,
    "latitude": 43.89833760709784
  },
  {
    "name": "吉林市",
    "value": "220200",
    "parent": "220000",
    "longitude": 126.56454398883335,
    "latitude": 43.87198833435933
  },
  {
    "name": "四平市",
    "value": "220300",
    "parent": "220000",
    "longitude": 124.39138207367984,
    "latitude": 43.17552470112557
  },
  {
    "name": "辽源市",
    "value": "220400",
    "parent": "220000",
    "longitude": 125.13368605218399,
    "latitude": 42.923302619053665
  },
  {
    "name": "通化市",
    "value": "220500",
    "parent": "220000",
    "longitude": 125.94265013851434,
    "latitude": 41.73639712986761
  },
  {
    "name": "白山市",
    "value": "220600",
    "parent": "220000",
    "longitude": 126.43579767534614,
    "latitude": 41.94585939701795
  },
  {
    "name": "松原市",
    "value": "220700",
    "parent": "220000",
    "longitude": 124.83299453234117,
    "latitude": 45.136048970084005
  },
  {
    "name": "白城市",
    "value": "220800",
    "parent": "220000",
    "longitude": 122.84077667910014,
    "latitude": 45.621086275218886
  },
  {
    "name": "延边朝鲜族自治州",
    "value": "222400",
    "parent": "220000",
    "longitude": 129.4859019581615,
    "latitude": 42.896413603744136
  },
  {
    "name": "南关区",
    "value": "220102",
    "parent": "220100",
    "longitude": 125.41964874071088,
    "latitude": 43.73219054084285
  },
  {
    "name": "宽城区",
    "value": "220103",
    "parent": "220100",
    "longitude": 125.34489933527382,
    "latitude": 43.998252407950645
  },
  {
    "name": "朝阳区",
    "value": "220104",
    "parent": "220100",
    "longitude": 125.27822648218306,
    "latitude": 43.68910861945122
  },
  {
    "name": "二道区",
    "value": "220105",
    "parent": "220100",
    "longitude": 125.61148484630954,
    "latitude": 43.872222715496505
  },
  {
    "name": "绿园区",
    "value": "220106",
    "parent": "220100",
    "longitude": 125.19133076326924,
    "latitude": 43.91216456483547
  },
  {
    "name": "双阳区",
    "value": "220112",
    "parent": "220100",
    "longitude": 125.7128223593714,
    "latitude": 43.531747024963465
  },
  {
    "name": "九台区",
    "value": "220113",
    "parent": "220100",
    "longitude": 125.96882675838017,
    "latitude": 44.194372106981
  },
  {
    "name": "农安县",
    "value": "220122",
    "parent": "220100",
    "longitude": 125.09432707272502,
    "latitude": 44.461506089800714
  },
  {
    "name": "榆树市",
    "value": "220182",
    "parent": "220100",
    "longitude": 126.60250076501057,
    "latitude": 44.879422926679325
  },
  {
    "name": "德惠市",
    "value": "220183",
    "parent": "220100",
    "longitude": 125.76904438894972,
    "latitude": 44.51050714691595
  },
  {
    "name": "昌邑区",
    "value": "220202",
    "parent": "220200",
    "longitude": 126.32651306090204,
    "latitude": 44.02389756059645
  },
  {
    "name": "龙潭区",
    "value": "220203",
    "parent": "220200",
    "longitude": 126.69508484723782,
    "latitude": 44.100874364701745
  },
  {
    "name": "船营区",
    "value": "220204",
    "parent": "220200",
    "longitude": 126.38908947187987,
    "latitude": 43.88217194145502
  },
  {
    "name": "丰满区",
    "value": "220211",
    "parent": "220200",
    "longitude": 126.69820214701856,
    "latitude": 43.65451533315501
  },
  {
    "name": "永吉县",
    "value": "220221",
    "parent": "220200",
    "longitude": 126.22756009767396,
    "latitude": 43.60148114755168
  },
  {
    "name": "蛟河市",
    "value": "220281",
    "parent": "220200",
    "longitude": 127.35174186542181,
    "latitude": 43.716756082246306
  },
  {
    "name": "桦甸市",
    "value": "220282",
    "parent": "220200",
    "longitude": 127.04139243957279,
    "latitude": 43.05663109913064
  },
  {
    "name": "舒兰市",
    "value": "220283",
    "parent": "220200",
    "longitude": 127.11677230894627,
    "latitude": 44.33546514415817
  },
  {
    "name": "磐石市",
    "value": "220284",
    "parent": "220200",
    "longitude": 126.17462779101467,
    "latitude": 43.0574561133298
  },
  {
    "name": "铁西区",
    "value": "220302",
    "parent": "220300",
    "longitude": 124.35539155325313,
    "latitude": 43.21415972250845
  },
  {
    "name": "铁东区",
    "value": "220303",
    "parent": "220300",
    "longitude": 124.45989915865624,
    "latitude": 43.10152883356444
  },
  {
    "name": "梨树县",
    "value": "220322",
    "parent": "220300",
    "longitude": 124.3804914067186,
    "latitude": 43.41443762960154
  },
  {
    "name": "伊通满族自治县",
    "value": "220323",
    "parent": "220300",
    "longitude": 125.27114939123413,
    "latitude": 43.34632182878895
  },
  {
    "name": "公主岭市",
    "value": "220381",
    "parent": "220300",
    "longitude": 124.68588222069599,
    "latitude": 43.79182606757778
  },
  {
    "name": "双辽市",
    "value": "220382",
    "parent": "220300",
    "longitude": 123.70852021747343,
    "latitude": 43.767694883216855
  },
  {
    "name": "龙山区",
    "value": "220402",
    "parent": "220400",
    "longitude": 125.2109975481031,
    "latitude": 42.913196595909014
  },
  {
    "name": "西安区",
    "value": "220403",
    "parent": "220400",
    "longitude": 125.15014857862096,
    "latitude": 42.98636494637781
  },
  {
    "name": "东丰县",
    "value": "220421",
    "parent": "220400",
    "longitude": 125.45480890407713,
    "latitude": 42.68393389598205
  },
  {
    "name": "东辽县",
    "value": "220422",
    "parent": "220400",
    "longitude": 125.18493119324795,
    "latitude": 42.94792512735953
  },
  {
    "name": "东昌区",
    "value": "220502",
    "parent": "220500",
    "longitude": 125.96012370780278,
    "latitude": 41.6772623965505
  },
  {
    "name": "二道江区",
    "value": "220503",
    "parent": "220500",
    "longitude": 126.15628012438644,
    "latitude": 41.77262595942713
  },
  {
    "name": "通化县",
    "value": "220521",
    "parent": "220500",
    "longitude": 125.85733217990663,
    "latitude": 41.72915613097937
  },
  {
    "name": "辉南县",
    "value": "220523",
    "parent": "220500",
    "longitude": 126.34272419975258,
    "latitude": 42.55794888560392
  },
  {
    "name": "柳河县",
    "value": "220524",
    "parent": "220500",
    "longitude": 125.91727588293635,
    "latitude": 42.18566541207805
  },
  {
    "name": "梅河口市",
    "value": "220581",
    "parent": "220500",
    "longitude": 125.72351563218488,
    "latitude": 42.54264989265649
  },
  {
    "name": "集安市",
    "value": "220582",
    "parent": "220500",
    "longitude": 125.99899197532311,
    "latitude": 41.25141058534607
  },
  {
    "name": "浑江区",
    "value": "220602",
    "parent": "220600",
    "longitude": 126.39664287376053,
    "latitude": 41.79164222825484
  },
  {
    "name": "江源区",
    "value": "220605",
    "parent": "220600",
    "longitude": 126.82530168684485,
    "latitude": 42.07895858792228
  },
  {
    "name": "抚松县",
    "value": "220621",
    "parent": "220600",
    "longitude": 127.62393805705028,
    "latitude": 42.27790911314429
  },
  {
    "name": "靖宇县",
    "value": "220622",
    "parent": "220600",
    "longitude": 126.90246851454675,
    "latitude": 42.449966505532906
  },
  {
    "name": "长白朝鲜族自治县",
    "value": "220623",
    "parent": "220600",
    "longitude": 127.86435839918639,
    "latitude": 41.58470916136256
  },
  {
    "name": "临江市",
    "value": "220681",
    "parent": "220600",
    "longitude": 127.19171033688407,
    "latitude": 41.81656596898653
  },
  {
    "name": "宁江区",
    "value": "220702",
    "parent": "220700",
    "longitude": 124.86757114896368,
    "latitude": 45.29270961688417
  },
  {
    "name": "前郭尔罗斯蒙古族自治县",
    "value": "220721",
    "parent": "220700",
    "longitude": 124.4816503761759,
    "latitude": 44.86912678932049
  },
  {
    "name": "长岭县",
    "value": "220722",
    "parent": "220700",
    "longitude": 123.86650428880183,
    "latitude": 44.30564452777848
  },
  {
    "name": "乾安县",
    "value": "220723",
    "parent": "220700",
    "longitude": 123.96912337789142,
    "latitude": 44.926914487460024
  },
  {
    "name": "扶余市",
    "value": "220781",
    "parent": "220700",
    "longitude": 125.60981401542614,
    "latitude": 45.17138413335374
  },
  {
    "name": "洮北区",
    "value": "220802",
    "parent": "220800",
    "longitude": 122.78907446427353,
    "latitude": 45.623300921068854
  },
  {
    "name": "镇赉县",
    "value": "220821",
    "parent": "220800",
    "longitude": 123.45227210722489,
    "latitude": 45.95617192379575
  },
  {
    "name": "通榆县",
    "value": "220822",
    "parent": "220800",
    "longitude": 122.74529133311323,
    "latitude": 44.78571677869629
  },
  {
    "name": "洮南市",
    "value": "220881",
    "parent": "220800",
    "longitude": 122.45367732552191,
    "latitude": 45.475604304499434
  },
  {
    "name": "大安市",
    "value": "220882",
    "parent": "220800",
    "longitude": 123.72371415195178,
    "latitude": 45.432438158186365
  },
  {
    "name": "延吉市",
    "value": "222401",
    "parent": "222400",
    "longitude": 129.47130153101367,
    "latitude": 43.05966660114006
  },
  {
    "name": "图们市",
    "value": "222402",
    "parent": "222400",
    "longitude": 129.8343107602306,
    "latitude": 43.03054892372987
  },
  {
    "name": "敦化市",
    "value": "222403",
    "parent": "222400",
    "longitude": 128.23949928010674,
    "latitude": 43.5602018380768
  },
  {
    "name": "珲春市",
    "value": "222404",
    "parent": "222400",
    "longitude": 130.70236659183635,
    "latitude": 43.07471934073669
  },
  {
    "name": "龙井市",
    "value": "222405",
    "parent": "222400",
    "longitude": 129.3838162246915,
    "latitude": 42.84424932076874
  },
  {
    "name": "和龙市",
    "value": "222406",
    "parent": "222400",
    "longitude": 128.91121076888584,
    "latitude": 42.46644228555597
  },
  {
    "name": "汪清县",
    "value": "222424",
    "parent": "222400",
    "longitude": 129.9539944169551,
    "latitude": 43.54014392150564
  },
  {
    "name": "安图县",
    "value": "222426",
    "parent": "222400",
    "longitude": 128.4376516920773,
    "latitude": 42.701033019189516
  },
  {
    "name": "哈尔滨市",
    "value": "230100",
    "parent": "230000",
    "longitude": 126.65771685544611,
    "latitude": 45.7732246332393
  },
  {
    "name": "齐齐哈尔市",
    "value": "230200",
    "parent": "230000",
    "longitude": 123.9872889421725,
    "latitude": 47.34769981336638
  },
  {
    "name": "鸡西市",
    "value": "230300",
    "parent": "230000",
    "longitude": 130.94176727325066,
    "latitude": 45.32153988655108
  },
  {
    "name": "鹤岗市",
    "value": "230400",
    "parent": "230000",
    "longitude": 130.29247205063453,
    "latitude": 47.33866590372683
  },
  {
    "name": "双鸭山市",
    "value": "230500",
    "parent": "230000",
    "longitude": 131.1714017395816,
    "latitude": 46.65510206248248
  },
  {
    "name": "大庆市",
    "value": "230600",
    "parent": "230000",
    "longitude": 125.02183973021087,
    "latitude": 46.596709020007594
  },
  {
    "name": "伊春市",
    "value": "230700",
    "parent": "230000",
    "longitude": 128.91076597792159,
    "latitude": 47.73468507507862
  },
  {
    "name": "佳木斯市",
    "value": "230800",
    "parent": "230000",
    "longitude": 130.28473458595482,
    "latitude": 46.813779604740354
  },
  {
    "name": "七台河市",
    "value": "230900",
    "parent": "230000",
    "longitude": 131.0190480471218,
    "latitude": 45.77500536864039
  },
  {
    "name": "牡丹江市",
    "value": "231000",
    "parent": "230000",
    "longitude": 129.608035395637,
    "latitude": 44.58852115278252
  },
  {
    "name": "黑河市",
    "value": "231100",
    "parent": "230000",
    "longitude": 127.50083029523519,
    "latitude": 50.250690090738274
  },
  {
    "name": "绥化市",
    "value": "231200",
    "parent": "230000",
    "longitude": 126.98909457163498,
    "latitude": 46.64606392699692
  },
  {
    "name": "大兴安岭地区",
    "value": "232700",
    "parent": "230000",
    "longitude": 124.19610419017351,
    "latitude": 51.9917889680144
  },
  {
    "name": "道里区",
    "value": "230102",
    "parent": "230100",
    "longitude": 126.36841846875294,
    "latitude": 45.68613924393256
  },
  {
    "name": "南岗区",
    "value": "230103",
    "parent": "230100",
    "longitude": 126.59025453923977,
    "latitude": 45.66612348458037
  },
  {
    "name": "道外区",
    "value": "230104",
    "parent": "230100",
    "longitude": 126.79557490270504,
    "latitude": 45.799105971954845
  },
  {
    "name": "平房区",
    "value": "230108",
    "parent": "230100",
    "longitude": 126.65771685544611,
    "latitude": 45.7732246332393
  },
  {
    "name": "松北区",
    "value": "230109",
    "parent": "230100",
    "longitude": 126.452271130752,
    "latitude": 45.941458151669195
  },
  {
    "name": "香坊区",
    "value": "230110",
    "parent": "230100",
    "longitude": 126.79204413625399,
    "latitude": 45.71044932235944
  },
  {
    "name": "呼兰区",
    "value": "230111",
    "parent": "230100",
    "longitude": 126.78775713041107,
    "latitude": 46.079315096501894
  },
  {
    "name": "阿城区",
    "value": "230112",
    "parent": "230100",
    "longitude": 127.12462182331598,
    "latitude": 45.55733518920172
  },
  {
    "name": "双城区",
    "value": "230113",
    "parent": "230100",
    "longitude": 126.2089303351192,
    "latitude": 45.429694282772054
  },
  {
    "name": "依兰县",
    "value": "230123",
    "parent": "230100",
    "longitude": 129.72150310518666,
    "latitude": 46.27563706842142
  },
  {
    "name": "方正县",
    "value": "230124",
    "parent": "230100",
    "longitude": 128.94941872931116,
    "latitude": 45.81976936296562
  },
  {
    "name": "宾县",
    "value": "230125",
    "parent": "230100",
    "longitude": 127.66161209687843,
    "latitude": 45.783825431221096
  },
  {
    "name": "巴彦县",
    "value": "230126",
    "parent": "230100",
    "longitude": 127.3242873538097,
    "latitude": 46.340415542077714
  },
  {
    "name": "木兰县",
    "value": "230127",
    "parent": "230100",
    "longitude": 127.92983800734365,
    "latitude": 46.24817165404115
  },
  {
    "name": "通河县",
    "value": "230128",
    "parent": "230100",
    "longitude": 128.76223231659597,
    "latitude": 46.24785724728285
  },